id,city,country,region,short_description,latitude,longitude,avg_temp_monthly,budget_level,culture,adventure,nature,beaches,nightlife,cuisine,wellness,urban,seclusion,Alcohol-free,Halal-friendly,Safe,budget_numeric,short_trip,weekend,long_trip,one_week,day_trip,avg_temp_summer,avg_temp_winter,family_friendly,airport_closeness,nearest_airport,distance_to_airport_km,cluster
c54acf38-3029-496b-8c7a-8343ad82785c,Milan,Italy,Europe,"Chic streets lined with fashion boutiques, historic architecture, and lively piazzas create a sophisticated yet welcoming atmosphere, perfect for leisurely exploration.",45.4641943,9.1896346,20.0,Luxury,100,40,40,20,80,100,60,100,40,0,0,0,3,1,0,0,1,0,24.83333333333333,5.166666666666667,0,5,Milano Linate Airport,7.118300765710827,0
0bd12654-ed64-424e-a044-7bc574bcf078,Yasawa Islands,Fiji,Oceania,"Crystal-clear waters, secluded beaches, and vibrant coral reefs create a serene paradise perfect for unwinding and immersing in natural beauty.",-17.2909471,177.12578580330327,20.0,Luxury,40,80,100,100,40,60,80,20,100,0,0,0,3,0,0,1,1,0,25.933333333333334,28.066666666666663,0,2,Nadi International Airport,61.63190802138647,1
73036cda-9134-46fc-a2c6-807782d59dfb,Whistler,Canada,North_America,"Snow-capped peaks and lush forests create a serene escape, where outdoor adventures meet cozy village vibes and crisp mountain air.",50.1171903,-122.9543022,20.0,Luxury,60,100,100,40,60,60,80,40,80,0,0,1,3,1,1,0,1,0,16.7,-2.033333333333333,0,1,Pitt Meadows Airport,101.72756943487342,1
3872c9c0-6b6e-49e1-9743-f46bfe591b86,Guanajuato,Mexico,North_America,"Winding cobblestone streets and colorful facades create a charming, vibrant atmosphere, where history and lively festivals fill the air with excitement.",20.9876996,-101.0,20.0,Mid-range,100,60,60,20,60,80,60,80,40,0,0,0,2,1,1,0,1,0,21.166666666666668,15.866666666666667,1,3,Del Bajío International Airport,49.86434607695673,0
e1ebc1b6-8798-422d-847a-22016faff3fd,Surabaya,Indonesia,Asia,"Bustling streets filled with the aroma of local spices, vibrant markets, and a rich cultural tapestry invite exploration and discovery.",-7.2459717,112.7378266,20.0,Budget,80,60,60,40,60,80,60,80,40,1,1,1,1,1,1,0,0,0,28.433333333333334,28.2,1,4,Juanda International Airport,15.841737739071409,0
26bd92cc-1bd7-46bc-a132-9c227115194a,Nuuk,Greenland,North_America,"Rugged landscapes meet the calm of icy fjords, where the crisp air and vibrant local culture create a unique Arctic charm.",64.1766835,-51.7359356,20.0,Luxury,60,80,100,40,40,60,40,40,100,0,0,0,3,1,0,0,1,0,6.766666666666667,-6.933333333333334,0,5,Nuuk Airport,3.181432921352547,1
20f80ed8-ce7f-43ad-a34d-a0cb156f5d4e,Windhoek,Namibia,Africa,"A blend of modernity and tradition, with bustling markets, German colonial architecture, and the vast Namibian landscape providing a unique backdrop.",-22.53356015,17.045477525861745,20.0,Mid-range,60,80,80,20,60,60,60,60,80,0,0,0,2,1,1,0,1,0,15.9,24.066666666666663,0,5,Eros Airport,9.450978181388033,1
0dae5759-947a-40c9-aaea-e2e647f1061e,Kingston,Jamaica,North_America,"Vibrant streets pulse with reggae rhythms, while lush hills and beaches offer a serene escape, creating a captivating blend of energy and tranquility.",17.9712148,-76.7928128,20.0,Mid-range,80,60,60,60,80,80,60,60,40,0,0,0,2,1,0,0,1,0,29.7,27.133333333333336,0,5,Tinson Pen Airport,3.8049169527375866,0
4e2d3678-bbb3-428e-a1df-0ba956ef3c77,Nafplio,Greece,Europe,"Charming cobblestone streets, vibrant bougainvillea, and the gentle sea breeze create a serene atmosphere perfect for leisurely exploration and relaxation.",37.5659229,22.8068782,20.0,Mid-range,80,60,80,60,60,80,60,60,80,0,0,0,2,1,1,0,0,1,27.23333333333333,8.733333333333333,1,2,Elefsis Air Base,85.99513997951733,0
b78d096a-87d0-4010-baac-e4879cab6aa9,Tbilisi,Georgia,Asia,"Cobblestone streets wind through eclectic neighborhoods, where vibrant markets and ancient architecture create a welcoming blend of history and modern charm.",41.6934591,44.8014495,20.0,Budget,80,60,60,20,60,80,60,60,60,0,0,0,1,1,1,0,1,0,25.133333333333336,4.366666666666666,1,4,Tbilisi Soganlug Air Base,12.24179824852823,0
d5bca023-e7ef-45a6-bbf3-f27313ce544d,Heidelberg,Germany,Europe,"Cobblestone streets lined with charming old buildings and the gentle flow of the Neckar River create an inviting, romantic atmosphere.",49.4093582,8.694724,20.0,Mid-range,100,40,80,20,60,80,60,60,80,0,0,1,2,1,1,0,0,0,20.7,4.066666666666666,1,4,Mannheim-City Airport,14.852344935403394,0
a881b470-86d0-4ce0-913b-1d453f68466e,Hobart,Australia,Oceania,"Charming waterfront views and a laid-back vibe invite exploration through historic streets, bustling markets, and the surrounding natural beauty of rugged landscapes.",-42.8825088,147.3281233,20.0,Mid-range,80,60,100,60,40,80,60,60,80,0,0,1,2,1,1,0,1,0,8.833333333333334,15.9,1,4,Hobart International Airport,15.888523327173775,1
6234202f-ff97-4d9b-955f-92bccb61c317,Nagasaki,Japan,Asia,"Steeped in history and surrounded by lush hills, this city offers a poignant mix of serene gardens and vibrant cultural experiences.",33.1154683,129.7874339,20.0,Mid-range,80,40,60,40,60,80,60,60,60,0,0,1,2,1,1,0,0,0,26.133333333333336,8.5,1,4,Nagasaki Airport,25.03546571493825,0
4dd122b5-7ab0-48b0-999b-dd08231fd517,Utrecht,Netherlands,Europe,"Charming canals lined with cozy cafés and historic buildings create a warm, inviting atmosphere perfect for leisurely strolls and quiet exploration.",52.0907006,5.1215634,20.0,Mid-range,80,40,60,20,80,80,60,80,60,0,0,1,2,1,1,0,0,0,18.066666666666663,5.1000000000000005,0,3,Amsterdam Airport Schiphol,34.369584639005275,0
9a90f31c-7073-4cdd-a6d1-6a6a1cbb4e8f,Bagan,Myanmar,Asia,"Ancient temples rise from misty plains, where the golden glow of sunrise paints a serene landscape that feels both timeless and mystical.",21.1317111,94.8623644,20.0,Budget,100,60,80,20,20,60,40,40,80,0,0,0,1,1,0,0,1,0,27.53333333333333,22.5,1,1,Meiktila Air Base,110.3846145189518,1
46cdc57e-d4d6-49a4-819a-5b8161bbdb3e,Malmö,Sweden,Europe,"Charming canals, innovative architecture, and a laid-back vibe make it perfect for leisurely strolls and exploring vibrant cultural scenes.",55.6052931,13.0001566,20.0,Mid-range,80,60,60,60,60,80,60,80,40,0,0,1,2,1,1,0,0,0,17.7,3.0,1,4,Copenhagen Kastrup Airport,21.659416558062706,0
5aab6f8f-70db-41a8-a1fb-e8d9026e533b,Amsterdam,Netherlands,Europe,"Charming canals wind through vibrant neighborhoods, where historic architecture meets cozy cafés and the air buzzes with a creative energy.",52.3730796,4.8924534,20.0,Mid-range,100,60,60,40,100,80,60,100,40,0,0,1,2,1,1,0,1,0,18.1,5.3,0,4,Amsterdam Airport Schiphol,11.299937361453098,0
8755d625-7efa-4e92-aed9-cb2386083a44,New York,United States,North_America,"The city buzzes with energy, offering iconic skylines, diverse cultures, and a sensory overload of sights, sounds, and tastes at every corner.",40.7127281,-74.0060152,20.0,Luxury,100,60,60,40,100,100,60,100,20,0,0,0,3,1,0,1,1,0,24.6,2.9,0,4,LaGuardia Airport,13.331238337159585,0
79a47311-1ffb-44d1-bd87-a1a9fb190f40,Chicago,United States,North_America,"Dynamic streets filled with diverse food, vibrant arts, and stunning architecture create a lively yet welcoming urban atmosphere by the lake.",41.8755616,-87.6244212,20.0,Luxury,100,60,60,40,100,100,60,100,40,0,0,0,3,1,0,0,1,0,23.933333333333334,-0.7666666666666666,0,4,Chicago Midway International Airport,14.547114590191466,0
630b0ecb-8651-476e-803d-b65f99f342a3,Raleigh,United States,North_America,"Tree-lined streets and historic architecture mix with modern art scenes and vibrant food markets, offering a warm, welcoming southern charm.",35.7803977,-78.6390989,20.0,Mid-range,80,60,80,40,60,80,60,80,60,0,0,0,2,1,1,0,0,0,26.03333333333333,7.5,1,4,Raleigh Durham International Airport,17.199267399529706,0
0d1ac2c5-e3d5-40b5-ad56-01f3d67710ab,Trondheim,Norway,Europe,"Charming wooden houses, crisp Nordic air, and a vibrant student atmosphere create a cozy yet lively vibe that's both welcoming and invigorating.",63.4304475,10.3952118,20.0,Luxury,80,60,80,40,60,60,60,60,80,0,0,0,3,1,1,0,1,0,14.366666666666667,-0.4000000000000001,1,4,"Trondheim Airport, Værnes",26.46240901487965,0
955899e4-7ccb-4b6a-a85c-a9b73efe6876,Bruges,Belgium,Europe,"Cobblestone streets lined with medieval architecture and the aroma of fresh waffles create a charming and nostalgic atmosphere, perfect for leisurely exploration.",51.2085526,3.226772,20.0,Mid-range,100,40,60,20,60,80,60,60,80,0,0,0,2,1,1,0,0,0,17.599999999999998,5.833333333333333,1,4,Oostende-Brugge International Airport,24.549607412261857,0
57239ab4-5376-4b81-a35e-fc8a27fb5812,Reykjavik,Iceland,Europe,"Colorful rooftops, crisp sea air, and the allure of geothermal pools create a unique blend of natural beauty and urban charm.",64.145981,-21.9422367,20.0,Luxury,60,80,100,40,60,60,80,60,80,0,0,0,3,1,1,0,1,0,10.833333333333334,0.5,0,5,Reykjavík Domestic Airport,1.9311987466939124,1
6d8f232e-d34d-4dac-95c4-e01d7983124c,Seoul,South Korea,Asia,"A dynamic blend of futuristic skyscrapers and ancient palaces, bustling markets, and tranquil parks, creating an energetic yet harmonious urban experience.",37.5666791,126.9782914,20.0,Mid-range,100,60,60,40,100,100,80,100,40,0,0,0,2,1,0,0,1,0,25.666666666666668,-0.0999999999999999,0,4,Gimpo International Airport,16.534692046878575,0
86f34228-6edb-4171-ba62-79fffa9e06f6,Ankara,Turkey,Asia,"A blend of modern and historic vibes, offering bustling markets, serene parks, and a rich tapestry of cultural experiences.",39.9207759,32.8540497,20.0,Mid-range,80,40,60,20,60,80,60,80,40,0,0,0,2,1,0,0,1,0,23.73333333333333,3.5,1,4,Etimesgut Air Base,14.47094535490528,0
fa445d6d-7fb4-4832-ba37-08ff468a1430,Kyoto,Japan,Asia,"Serene temples and vibrant gardens blend with the gentle rustle of bamboo forests, creating a tranquil yet deeply enriching experience.",35.0115754,135.7681441,20.0,Luxury,100,40,80,20,40,100,60,60,80,0,0,1,3,1,0,0,1,0,26.9,6.333333333333333,1,3,Osaka International Airport,39.22299084995294,0
1fd503e7-d209-40c1-abd0-299af9c7d4de,Tampa,United States,North_America,"Sun-drenched streets, vibrant waterfronts, and a lively cultural scene create an inviting mix of relaxation and adventure for visitors.",27.9477595,-82.458444,20.0,Mid-range,60,60,80,80,80,80,60,60,40,0,0,0,2,1,1,0,1,0,28.5,18.3,0,5,Tampa International Airport,7.9640174808935456,0
39e15d15-ec4c-4ba9-9cd5-6775945aad8f,Dublin,Ireland,Europe,"Charming cobblestone streets, lively pubs filled with music, and a rich tapestry of history create a welcoming and vibrant atmosphere.",53.3493795,-6.2605593,20.0,Mid-range,80,40,60,40,80,80,60,80,40,0,0,0,2,1,1,0,1,0,14.8,6.033333333333334,0,5,Dublin Airport,8.822090598626332,0
c0cc2c39-9e57-4edd-8696-2119a96ca6cb,Washington,United States,North_America,"Majestic landscapes blend with vibrant city life, offering a mix of natural beauty, cultural richness, and a welcoming atmosphere.",38.8950368,-77.0365427,20.0,Mid-range,100,40,60,20,80,80,60,100,40,0,0,0,2,1,1,0,1,0,26.23333333333333,4.9,0,5,Ronald Reagan Washington National Airport,4.775399934263904,0
dd54b0e6-43e7-4be6-9eb4-5e4863f25f52,Livingstone,Zambia,Africa,"Feel the rush of cascading waterfalls and the thrill of wildlife encounters, all amidst a backdrop of vibrant sunsets and warm local hospitality.",-17.853135,25.861429,20.0,Mid-range,60,100,100,40,40,60,60,40,80,0,0,0,2,1,1,0,1,0,18.5,24.73333333333333,0,5,Harry Mwanga Nkumbula International Airport,5.380050821747056,1
09323a57-0f0c-4190-9ce5-e689efe6137d,Kraków,Poland,Europe,"Cobblestone streets lead to vibrant squares filled with the buzz of locals and tourists alike, offering a blend of history and lively culture.",50.0619474,19.9368564,20.0,Mid-range,100,40,60,20,80,80,60,80,40,0,0,0,2,1,1,0,1,0,19.7,0.9,0,4,Kraków John Paul II International Airport,10.992878311427516,0
87177e3c-1535-45af-a1e7-e65357f2c0d3,Petra,Jordan,Middle_East,"Wandering through ancient canyons, you'll feel the echoes of history in the rose-red stone, with every step revealing stunning, time-worn architecture.",30.3258363,35.4745669,20.0,Mid-range,100,80,80,20,20,60,40,20,80,0,0,0,2,1,0,0,1,0,28.133333333333336,10.733333333333334,0,2,King Feisal Air Base,64.63127158014217,1
50dc5be0-a23e-4da3-aecc-f5f095c26bdb,Athens,Greece,Europe,"Ancient ruins stand proudly against a backdrop of vibrant street life and bustling markets, where history and modernity create an electrifying blend.",37.9755648,23.7348324,20.0,Mid-range,100,60,60,60,80,100,60,80,40,0,0,0,2,1,1,0,1,0,28.266666666666666,11.433333333333332,0,4,Elefsis Air Base,18.48443595448113,0
769e57b7-a2fe-4eb9-8d39-4c7a0b940c02,Malé,Maldives,Asia,"Vibrant markets, azure waters, and the gentle hum of island life create an inviting atmosphere that feels both exotic and familiar.",4.1779879,73.5107387,20.0,Mid-range,40,60,100,100,40,60,80,60,60,0,0,0,2,1,1,0,0,0,29.366666666666664,28.73333333333333,1,5,Malé International Airport,2.5523914463713124,1
163cf783-592c-448f-b33c-f28ac7cce617,Austin,United States,North_America,"Live music spills from vibrant bars, food trucks serve up eclectic flavors, and the warm, welcoming vibe makes you feel instantly at home.",30.2711286,-97.7436995,20.0,Mid-range,80,60,60,20,100,100,60,80,40,0,0,0,2,1,1,0,1,0,29.7,12.3,0,4,Austin Bergstrom International Airport,11.337846075923997,0
e3597f71-7e84-47f9-b3f2-567398c8fcdd,Pago Pago,American Samoa,Oceania,"Lush green mountains meet crystal-clear waters, where laid-back island vibes and vibrant Polynesian culture create a welcoming and serene atmosphere.",-14.2754786,-170.7048298,20.0,Mid-range,60,80,100,80,40,60,60,40,80,0,0,0,2,1,0,0,1,0,27.2,28.166666666666668,0,5,Pago Pago International Airport,6.198848685616361,1
e8ad2770-6863-4e5c-a993-04884328802e,Luanda,Angola,Africa,"A bustling port city with vibrant markets, lively music scenes, and a warm coastal breeze that invites exploration and discovery.",-8.8272699,13.2439512,20.0,Mid-range,60,60,60,60,60,80,40,60,40,0,0,0,2,1,0,0,1,0,22.73333333333333,27.366666666666664,1,5,Quatro de Fevereiro International Airport,3.7311938571463754,0
ae842628-e555-44fe-881f-93ac5378c589,New Orleans,United States,North_America,"Lively streets echo with jazz, while the scent of Creole cuisine fills the air, creating a vibrant and soulful experience.",29.9759983,-90.0782127,20.0,Mid-range,100,60,40,40,100,100,60,80,40,0,0,0,2,1,1,0,1,0,28.9,14.466666666666669,0,5,Lakefront Airport,8.810075663613091,0
4574d558-f5fa-4e6e-bead-e21b8cf0edcc,Raja Ampat,Indonesia,Asia,"Crystal-clear waters teeming with vibrant marine life and secluded islands offer a serene escape, perfect for snorkeling and diving enthusiasts seeking adventure.",-0.7125553,130.30344727618905,20.0,Luxury,40,80,100,100,20,60,60,20,100,1,1,1,3,0,0,1,1,0,26.566666666666663,27.600000000000005,0,1,Domine Eduard Osok Airport,111.20088626735544,1
fa34b503-34f8-42a2-b918-a96c507e1378,Hamilton Island,Australia,Oceania,"Turquoise waters and lush landscapes create a serene escape, where gentle sea breezes and vibrant sunsets offer a perfect island retreat.",-20.3546262,148.9560518,20.0,Luxury,40,80,100,100,60,80,80,40,80,0,0,1,3,1,0,0,1,0,20.4,27.23333333333333,0,5,Hamilton Island Airport,0.572773514319481,1
677fa6ef-b91a-4438-a73d-d497fc7cf2d8,Melbourne,Australia,Oceania,"A vibrant mix of street art, diverse cuisine, and lively laneways create an atmosphere that's both exciting and warmly inviting.",-37.8142454,144.9631732,20.0,Mid-range,100,60,60,60,80,100,80,100,40,0,0,1,2,1,1,0,1,0,10.033333333333331,19.666666666666668,0,4,Melbourne Essendon Airport,10.985128023509318,0
32ad5264-2d93-468d-84a0-f816c4833366,Puebla,Mexico,North_America,"Cobblestone streets filled with vibrant colors, lively markets, and the aroma of rich mole create an inviting and warm atmosphere.",18.833333,-98.0,20.0,Mid-range,100,60,60,20,60,100,60,80,40,0,0,0,2,1,1,0,1,0,18.53333333333333,15.366666666666667,1,3,Hermanos Serdán International Airport,53.22911407302034,0
1a3cc3d3-d65f-481f-acc0-424bd9c3210e,Richmond,United States,North_America,"Historic streets lined with charming brick buildings, vibrant art scenes, and the gentle flow of the James River create a welcoming atmosphere.",37.5385087,-77.43428,20.0,Mid-range,80,60,60,40,60,80,60,60,60,0,0,0,2,1,1,0,1,0,25.566666666666663,5.6000000000000005,1,4,Richmond International Airport,10.762186828087536,0
5324f69c-3393-469d-b375-8f6e92fa085a,Bridgetown,Barbados,North_America,"Warm ocean breezes mingle with the rhythmic beats of calypso music, creating an inviting atmosphere perfect for unwinding and exploration.",13.0977832,-59.6184184,20.0,Mid-range,60,60,80,100,80,80,80,60,40,0,0,0,2,1,1,0,1,0,28.03333333333333,26.33333333333333,0,4,Grantley Adams International Airport,13.879373224143729,1
fe145875-322b-408f-8ce9-f4d04baf00a7,Oaxaca City,Mexico,North_America,Colorful streets filled with vibrant markets and the aroma of rich mole sauces create a warm and inviting cultural tapestry.,17.0604663,-96.7253575,20.0,Mid-range,100,60,60,20,60,100,60,60,60,0,0,0,2,1,1,0,1,0,21.73333333333333,19.33333333333333,1,5,Xoxocotlán International Airport,6.642803629315085,0
bf232406-1a85-47a5-9287-6ba81272a3f0,San Sebastián,Spain,Europe,"Golden beaches meet vibrant pintxo bars and lush green hills, creating a lively yet laid-back atmosphere perfect for unwinding and exploring.",43.3224219,-1.9838889,20.0,Mid-range,80,60,60,100,80,100,60,60,40,0,0,0,2,1,1,0,1,0,19.066666666666663,9.766666666666667,0,4,San Sebastián Airport,16.08359438075446,0
2216dc6e-cb6a-4107-b6ea-dceebd9a53eb,Sedona,United States,North_America,"Red rock formations create a stunning backdrop for peaceful hikes, art galleries, and spiritual retreats, offering a serene escape from the everyday hustle.",34.8688613,-111.7614394,20.0,Mid-range,60,80,100,20,40,60,100,40,80,0,0,0,2,1,1,0,0,0,23.03333333333333,5.933333333333334,0,3,Flagstaff Pulliam International Airport,31.09347667729801,1
5a944377-dccf-4cc1-9234-de053e9cc1d2,Cotonou,Benin,Africa,"Bustling markets, vibrant street life, and warm coastal breezes create an inviting atmosphere filled with rich cultural experiences and local charm.",6.3676953,2.4252507,20.0,Budget,80,60,60,60,60,80,40,60,60,0,0,0,1,1,1,0,0,0,26.433333333333334,28.566666666666663,1,5,Cadjehoun Airport,4.667322890563418,0
9ea78120-75de-4bce-b095-fb0811a3294f,Sarajevo,Bosnia and Herzegovina,Europe,"Cobblestone streets echo with the sound of church bells and the call to prayer, creating a unique blend of cultures and histories.",43.8519774,18.3866868,20.0,Budget,80,60,60,20,60,80,60,60,60,0,0,0,1,1,1,0,1,0,21.4,2.466666666666667,1,5,Sarajevo International Airport,5.372113452067445,0
dfed6949-406d-4064-8c2e-5c794ded2e27,Tirana,Albania,Europe,"Vibrant streets filled with eclectic architecture, lively markets, and welcoming locals create an inviting atmosphere that feels both dynamic and laid-back.",41.3281482,19.8184435,20.0,Budget,60,60,60,40,60,60,60,60,40,0,0,0,1,1,1,0,0,0,25.566666666666663,8.266666666666666,1,4,Tirana International Airport Mother Teresa,12.620771876694135,0
8221d5a5-e813-4993-9bf6-c2bac26d0cb8,Rio de Janeiro,Brazil,South_America,"Vibrant streets pulse with samba rhythms, stunning beaches meet lush mountains, and every corner offers a burst of color and life.",-22.9110137,-43.2093727,20.0,Mid-range,80,80,100,100,100,80,60,80,40,0,0,0,2,1,0,0,1,0,21.5,26.766666666666666,0,5,Santos Dumont Airport,4.73963137811128,1
056161c2-b2c6-40f9-8546-bef688dd90e7,Curitiba,Brazil,South_America,"Lush parks, innovative urban design, and a blend of cultures create a refreshing and vibrant cityscape that feels both modern and welcoming.",-25.4295963,-49.2712724,20.0,Mid-range,80,60,80,20,60,80,60,80,60,0,0,0,2,1,1,0,1,0,15.433333333333332,21.566666666666663,1,5,Bacacheri Airport,4.793509608153197,0
12ffe1e2-6387-46d6-8bbb-267855faf5f8,Phnom Penh,Cambodia,Asia,"Bustling streets filled with the aroma of street food, vibrant markets, and a rich tapestry of history create an unforgettable atmosphere.",11.5730391,104.857807,20.0,Budget,80,60,40,20,60,80,40,60,40,0,0,0,1,1,1,0,1,0,29.4,27.866666666666664,0,5,Phnom Penh International Airport,3.302229257512623,0
807e0033-d4ff-4257-bcbc-60da406b8e4d,Fès,Morocco,Africa,"Winding alleys filled with vibrant souks, the aroma of spices, and the sound of artisans at work create an enchanting, timeless atmosphere.",34.0346534,-5.0161926,20.0,Budget,100,40,40,20,40,80,60,60,60,1,1,1,1,1,0,0,1,0,26.4,11.366666666666667,1,4,Fes Saïss International Airport,12.446914653813408,0
ab9a9d64-58c2-4cb0-a9ad-81ed9b17cd69,Toronto,Canada,North_America,"Dynamic streets buzzing with diverse cultures, vibrant art scenes, and a skyline that hugs the shimmering lake make for an inviting urban experience.",43.6534817,-79.3839347,20.0,Mid-range,80,60,60,40,80,80,60,100,40,0,0,1,2,1,1,0,1,0,21.366666666666664,-1.5333333333333332,0,5,Billy Bishop Toronto City Centre Airport,3.053132891206922,0
749963fe-2962-4ffe-b78a-391afdd6a7bf,Lucca,Italy,Europe,"Wander through cobblestone streets surrounded by ancient walls, where charming piazzas and the aroma of fresh Italian cuisine fill the air.",44.017763900000006,10.454430026192636,20.0,Mid-range,80,40,60,40,40,80,60,60,80,0,0,0,2,1,1,0,0,1,12.8,-1.1,1,3,Pisa International Airport,37.452632880821575,0
ab8dc374-5acd-430f-b940-7885899ef8c5,Edmonton,Canada,North_America,"Wide-open streets, a lively arts scene, and vibrant festivals create a welcoming atmosphere that feels both dynamic and comfortably laid-back.",53.5462055,-113.491241,20.0,Mid-range,80,60,80,20,60,60,60,60,40,0,0,1,2,1,1,0,1,0,17.933333333333334,-8.666666666666666,1,4,Edmonton International Airport,26.947702960200424,0
3c6506e6-c494-4622-aba3-2ba895530c7a,Barcelona,Spain,Europe,"Vibrant streets filled with Gaudí's whimsical architecture, lively tapas bars, and the warm Mediterranean breeze create an inviting and dynamic atmosphere.",41.3828939,2.1774322,20.0,Mid-range,100,60,60,80,100,100,60,100,40,0,0,0,2,1,0,0,1,0,24.8,9.766666666666667,0,4,Josep Tarradellas Barcelona-El Prat Airport,12.620680090833986,0
75c6f7c9-5c87-464a-9c28-c91ecd55da98,Banff,Canada,North_America,"Majestic mountains, crystal-clear lakes, and fresh alpine air create a breathtakingly serene atmosphere, perfect for nature lovers and adventure seekers alike.",51.175076,-115.5720773,20.0,Luxury,60,100,100,20,40,60,80,40,80,0,0,1,3,1,0,1,1,0,14.266666666666666,-7.7,0,2,Calgary / Springbank Airport,83.96782783636696,1
a4f86f85-430e-400a-bda5-315c7bdefd57,Maputo,Mozambique,Africa,"Bustling markets, vibrant street life, and the rhythmic sounds of local music create a lively and colorful atmosphere to explore.",-25.966213,32.56745,20.0,Mid-range,60,60,80,80,60,80,60,60,40,0,0,0,2,1,1,0,1,0,20.266666666666666,26.73333333333333,1,5,Maputo Airport,5.076003954747284,1
a010e07c-cf4b-4cf9-8b08-40df2094addd,Dar es Salaam,Tanzania,Africa,"Lively markets, vibrant street life, and the warm Indian Ocean breeze create a dynamic and welcoming atmosphere full of local charm.",-6.8160837,39.2803583,20.0,Budget,80,60,80,80,60,80,60,60,40,0,0,0,1,1,1,0,1,0,24.73333333333333,28.366666666666664,1,4,Julius Nyerere International Airport,11.012131782481696,0
61a3b6e3-f03f-42e4-b10d-80a3d1aec106,Hamilton,Bermuda,North_America,"Charming streets lined with pastel buildings and the gentle sea breeze create a laid-back, yet vibrant island atmosphere.",32.2942679,-64.7853167,20.0,Luxury,60,60,80,100,60,80,80,60,40,0,0,0,3,1,1,0,0,0,26.73333333333333,18.96666666666667,1,4,L.F. Wade International Airport,12.667461500783936,0
5cf8ffe5-b559-43a9-a030-fcf73b09400b,Santiago de Chile,Chile,South_America,"A vibrant city where modern skyscrapers meet historic streets, offering stunning mountain views and a lively cultural scene full of energy.",-33.4377756,-70.6504502,20.0,Mid-range,80,80,80,40,80,80,60,80,40,0,0,0,2,1,1,0,1,0,9.4,21.066666666666663,0,4,Comodoro Arturo Merino Benítez International Airport,13.512746988745649,0
273ff2d2-80b8-4886-81e4-1908a11e6f5a,Shanghai,China,Asia,"Vibrant streets pulse with energy, blending futuristic skyscrapers with ancient temples, while enticing aromas from street food stalls fill the air.",31.2312707,121.4700152,20.0,Mid-range,100,60,40,20,100,100,60,100,40,0,0,0,2,1,0,0,1,0,28.4,7.433333333333333,0,4,Shanghai Dachang Air Base,11.84859286181963,0
459b1d00-2b6e-4158-afe5-e091350990fe,Kathmandu,Nepal,Asia,"Nestled in a valley surrounded by towering peaks, the city buzzes with vibrant markets, ancient temples, and the aroma of spices.",27.708317,85.3205817,20.0,Budget,100,80,80,20,40,80,60,60,40,0,0,0,1,1,0,1,1,0,23.76666666666667,11.566666666666668,0,5,Tribhuvan International Airport,4.00966615936929,0
60ac5495-4952-41a0-a2e8-d321d2f23a4d,Auckland,New Zealand,Oceania,"A lively harbor city where lush landscapes meet urban sophistication, offering a vibrant mix of cultures, flavors, and stunning coastal views.",-36.852095,174.7631803,20.0,Mid-range,60,80,80,60,80,80,60,80,40,0,0,1,2,1,0,1,1,0,11.866666666666667,19.73333333333333,0,4,RNZAF Base Auckland-Whenuapai,13.84343536970086,1
77b02e0f-770c-4fa7-b0a5-7cde588b203d,Québec City,Canada,North_America,"Cobblestone streets and historic architecture create a charming, old-world atmosphere, while the aroma of fresh pastries fills the crisp air.",46.8137431,-71.2084061,20.0,Mid-range,100,60,80,40,60,80,60,60,60,0,0,1,2,1,1,0,1,0,19.3,-7.933333333333334,1,4,Quebec Jean Lesage International Airport,14.29682515691796,0
ca07286f-3b0c-4fd3-acae-444e7514def0,Bogotá,Colombia,South_America,"A vibrant mix of colonial charm and modern energy, with bustling markets, rich history, and stunning mountain views that invigorate the senses.",4.6533816,-74.0836333,20.0,Mid-range,80,60,60,20,80,80,60,80,40,0,0,0,2,1,1,0,1,0,14.033333333333331,13.966666666666669,0,5,El Dorado International Airport,8.825899026089134,0
db0dcdf1-2bea-470f-935f-2c98bd125592,Avarua,Cook Islands,Oceania,"Tropical breezes and stunning ocean views create a laid-back island vibe, inviting you to unwind and soak in the serene beauty.",-21.2074736,-159.7708145,20.0,Mid-range,60,60,80,100,40,60,80,40,80,0,0,0,2,1,0,0,1,0,23.066666666666663,26.33333333333333,1,5,Rarotonga International Airport,3.6859631487092903,1
ae02cf5f-1483-4054-9122-186c5eb08664,Izmir,Turkey,Asia,"Coastal breezes carry the scent of the sea through bustling markets and lively streets, offering a vibrant yet laid-back Mediterranean vibe.",38.23166,27.02997,20.0,Mid-range,80,60,60,80,60,80,60,80,40,0,0,0,2,1,1,0,1,0,27.7,8.7,1,4,Adnan Menderes International Airport,12.985486567406635,0
ba4d54dd-0e8d-4039-aad9-1f246fdacadb,Skopje,North Macedonia,Europe,"Wandering through eclectic streets, you'll encounter a blend of ancient history and modern quirks, with vibrant markets and grand statues at every turn.",41.9961816,21.4319213,20.0,Budget,80,60,60,20,60,60,40,60,60,0,0,0,1,1,1,0,0,0,24.6,3.533333333333333,1,4,Skopje International Airport,16.319930069089857,0
38c4cd22-ea4a-4ae1-961b-939933868829,Cartagena,Colombia,South_America,"Winding cobblestone streets, vibrant colonial architecture, and the rhythmic sound of salsa create a lively and colorful coastal atmosphere.",10.4265566,-75.5441671,20.0,Mid-range,100,60,60,80,80,80,60,80,40,0,0,0,2,1,1,0,1,0,28.8,27.633333333333336,0,5,Rafael Nuñez International Airport,3.836690272206888,0
32c4ac7c-550f-417c-afcc-a1dc2b183e8f,Dubrovnik,Croatia,Europe,"Wander through ancient stone streets, bask in the Adriatic sun, and feel the blend of history and sea breeze at every corner.",42.6491029,18.0939501,20.0,Mid-range,100,60,80,80,60,80,60,60,40,0,0,0,2,1,1,0,0,1,25.7,9.7,1,4,Dubrovnik Ruđer Bošković Airport,17.044044898351025,0
f139e95f-1d18-40b9-a7f0-f8d908c05e53,Bergen,Norway,Europe,"Charming waterfront views, colorful wooden houses, and the fresh scent of sea air make this coastal city feel both cozy and invigorating.",60.3943055,5.3259192,20.0,Luxury,80,80,100,40,60,60,60,60,80,0,0,0,3,1,1,0,1,0,15.066666666666668,3.1666666666666665,0,4,"Bergen Airport, Flesland",12.690764867798434,1
6a0bce48-86be-4f4c-9106-9308a936d565,Bocas del Toro,Panama,North_America,"Crystal-clear waters lap against palm-fringed beaches, while vibrant marine life and laid-back island vibes create an unforgettable tropical escape.",9.26847485,-81.99322424821933,20.0,Mid-range,60,80,100,100,60,60,60,40,80,0,0,0,2,1,1,0,1,0,26.433333333333334,25.0,0,4,Bocas del Toro International Airport,29.387777396108145,1
7c623237-bc71-4ba0-ae74-a64b0201eeba,Santo Domingo,Dominican Republic,North_America,"Lively streets filled with the sound of merengue, colonial architecture, and the aroma of local cuisine create an inviting and vibrant atmosphere.",18.4801972,-69.942111,20.0,Mid-range,80,60,60,80,80,80,60,80,40,0,0,0,2,1,1,0,1,0,27.566666666666663,24.933333333333334,0,4,La Isabela International Airport,11.241394069685258,0
198847d2-1823-4b9d-98dc-c9b9d22eb768,Baños,Ecuador,South_America,"Lush green mountains, steaming thermal pools, and the thrill of adventure sports create an exhilarating yet serene escape in this enchanting town.",-1.33191575,-78.26252853850661,20.0,Budget,60,100,100,20,60,60,80,40,80,0,0,0,1,1,1,0,0,0,19.53333333333333,20.53333333333333,0,3,Chachoán Regional Airport,37.16366248611703,1
24446934-6d3a-4d1d-89e6-82c8337fd26c,Cairo,Egypt,Africa,"Bustling streets filled with vibrant markets, the aroma of spices, and the awe-inspiring sight of ancient pyramids create an unforgettable experience.",30.0443879,31.2357257,20.0,Budget,100,60,60,40,60,80,60,80,40,1,1,1,1,1,0,0,1,0,30.0,16.066666666666666,1,4,Almaza Air Force Base,13.042206064642723,0
1c516349-193b-4421-9959-ad6cefe95efd,Iquitos,Peru,South_America,"Lush rainforests, vibrant markets, and the hum of riverboats create an atmosphere buzzing with life and natural wonder.",-3.749365,-73.2444145,20.0,Budget,60,100,100,20,40,60,40,40,80,0,0,0,1,1,0,0,1,0,25.7,26.166666666666668,0,5,Coronel FAP Francisco Secada Vignetta International Airport,8.155212901041333,1
2ebb8f10-653a-47d5-a403-f7a441bbc0a4,Charlotte,United States,North_America,"Bustling streets lined with towering trees, vibrant arts scenes, and a warm Southern hospitality create a welcoming and lively atmosphere.",35.2272086,-80.8430827,20.0,Mid-range,60,60,60,20,60,60,60,80,40,0,0,0,2,1,1,0,1,0,26.2,7.966666666666666,1,5,Charlotte Douglas International Airport,9.203436640564746,0
caf79b01-70b6-450b-9601-66fdadb8df39,Marseille,France,Europe,"A lively port city with Mediterranean flair, bustling markets, and a mix of historic charm and modern vibrancy, offering endless exploration.",43.2961743,5.3699525,20.0,Mid-range,80,60,60,60,80,80,60,80,40,0,0,0,2,1,1,0,1,0,25.133333333333336,8.6,0,4,Marseille Provence Airport,20.27326490515697,0
a93b9a93-c474-483c-9d27-8bb1f8b0090c,Malabo,Equatorial Guinea,Africa,"Tropical breezes mingle with the vibrant energy of colorful markets and lively streets, offering a warm and welcoming cultural experience.",3.741877,8.7740663,20.0,Mid-range,60,60,80,60,40,60,40,40,80,0,0,0,2,1,1,0,0,0,25.9,27.83333333333333,1,5,Malabo Airport,7.401968699212889,1
c7d691ad-b361-404d-a6e4-ab4f7a4120c8,Mbabane,Eswatini,Africa,"Surrounded by lush mountains, the city offers a relaxed atmosphere where vibrant markets and friendly locals create an inviting experience.",-26.325745,31.144663,20.0,Budget,60,60,80,20,40,60,60,40,80,0,0,0,1,1,1,0,0,0,18.133333333333336,23.266666666666666,1,4,Matsapha Airport,27.815628156112457,1
ad6338c1-1ad3-4f1c-8c78-26d7c86078fd,Sofia,Bulgaria,Europe,"Charming streets lined with eclectic architecture and vibrant markets invite you to immerse in a blend of history, culture, and modern energy.",42.6977028,23.3217359,20.0,Budget,80,60,60,20,60,80,60,60,40,0,0,0,1,1,1,0,1,0,21.6,1.7333333333333334,1,5,Sofia Airport,7.841501424154941,0
6d6a0097-d1d4-40f0-b2ae-28d0c9ab9dfc,San Marino,San Marino,Europe,"Perched atop rolling hills, this charming enclave offers medieval towers, cobblestone streets, and sweeping vistas, inviting a leisurely exploration of its storied past.",43.9458623,12.458306,20.0,Mid-range,80,40,60,20,40,60,40,60,80,0,0,0,2,0,1,0,0,1,24.53333333333333,6.4,1,4,Federico Fellini International Airport,14.80340258828032,0
45c083b3-fc34-4d42-b74a-cd9dffe4156a,Berlin,Germany,Europe,"Eclectic streets filled with history, art, and a dynamic cultural scene create an atmosphere that's both invigorating and deeply engaging.",52.510885,13.3989367,20.0,Mid-range,100,60,40,20,100,80,60,100,40,0,0,1,2,1,1,0,1,0,19.866666666666664,3.2,0,4,Berlin Brandenburg Airport,17.908926223209853,0
9f3e50a0-752d-42f5-b129-72d7880beab7,Helsinki,Finland,Europe,"A blend of modern design and serene nature, where crisp air and cozy cafes invite you to unwind and explore.",60.1674881,24.9427473,20.0,Mid-range,80,60,80,40,60,80,80,80,60,0,0,0,2,1,1,0,1,0,17.333333333333332,-1.3333333333333333,1,4,Helsinki Vantaa Airport,16.81497701750374,0
8cc00822-8c1e-4446-ba89-0a35128ad69a,Warsaw,Poland,Europe,"Historic streets blend with modern vibes, where cozy cafes and vibrant squares invite leisurely strolls and a taste of local culture.",52.2337172,21.071432235636493,20.0,Mid-range,80,40,60,20,80,80,60,80,40,0,0,0,2,1,1,0,1,0,20.266666666666666,1.2333333333333334,0,4,Warsaw Chopin Airport,10.380873849816272,0
be181851-282e-409b-9626-1da82ed060f5,Verona,Italy,Europe,"Charming streets with a romantic vibe, historic architecture, and cozy piazzas invite leisurely strolls and delightful discoveries at every turn.",45.4424977,10.985737689444765,20.0,Mid-range,100,40,60,20,60,80,60,80,60,0,0,0,2,1,1,0,0,0,24.766666666666666,4.466666666666667,1,5,Verona Villafranca Valerio Catullo Airport,9.325928266659265,0
3a70dff6-b805-4e41-accf-480d43ed6ba7,Annecy,France,Europe,"Charming canals and cobblestone streets weave through a picturesque town, surrounded by stunning alpine views and the serene waters of a crystal-clear lake.",45.8992348,6.1288847,20.0,Mid-range,80,80,100,60,60,80,60,60,80,0,0,0,2,1,1,0,0,0,21.0,3.633333333333333,0,5,Annecy Meythet airport,4.045783442563158,1
2f3a6926-553f-4d7a-acf8-5b17af6f2e93,Colombo,Sri Lanka,Asia,"Lively streets filled with the aroma of spices, historic temples, and a coastal breeze create a vibrant and welcoming atmosphere.",6.9388614,79.8542005,20.0,Budget,80,60,60,60,60,80,60,80,40,0,0,0,1,1,1,0,1,0,28.433333333333334,27.5,1,4,Colombo Ratmalana Airport,13.467073753010537,0
25b9fbd9-78cb-4b0c-a050-2488c9431275,Fraser Island,Australia,Oceania,"Endless stretches of sandy beaches, lush rainforests, and crystal-clear freshwater lakes create a serene escape filled with natural wonders and tranquility.",-25.24672,153.1468044,20.0,Mid-range,40,100,100,100,20,40,60,20,80,0,0,1,2,1,1,0,1,0,17.099999999999998,25.2,0,4,Hervey Bay Airport,27.97603821444481,1
8394f9fd-03fe-4dca-9e73-4598909d2450,Dakar,Senegal,Africa,"Bustling markets, rhythmic music, and vibrant street life create an energetic atmosphere that's both captivating and welcoming.",14.693425,-17.447938,20.0,Mid-range,80,60,60,80,60,80,60,60,40,0,0,0,2,1,0,0,1,0,27.26666666666667,22.866666666666664,1,5,Léopold Sédar Senghor International Airport,6.865498918154421,0
5f6b28e0-a6a1-4665-81ca-ebb074134424,Wadi Rum,Jordan,Middle_East,"Expansive red sands and towering sandstone cliffs create a surreal landscape, inviting exploration and offering moments of profound tranquility under star-filled skies.",29.5084443,35.3362154,20.0,Mid-range,60,100,100,20,20,60,60,20,100,0,0,0,2,1,0,0,1,0,33.733333333333334,16.666666666666668,0,3,Aqaba King Hussein International Airport,32.837138220357176,1
d7e45496-f17a-4187-a9a5-ce30958370bf,Munich,Germany,Europe,"Historic streets filled with the aroma of pretzels and beer, vibrant festivals, and a charming blend of tradition and modernity await.",48.1371079,11.5753822,20.0,Mid-range,100,60,60,20,80,80,60,100,40,0,0,1,2,1,1,0,0,1,19.933333333333334,2.833333333333333,0,4,Oberpfaffenhofen Airport,22.567551810374383,0
139d05b0-435f-42e5-850f-3aa57ac0fefb,Freiburg,Germany,Europe,"Charming cobblestone streets, lush greenery, and a welcoming vibe create a perfect blend of nature and history, inviting you to explore leisurely.",47.9960901,7.8494005,20.0,Mid-range,80,60,100,20,60,60,60,60,80,0,0,1,2,1,1,0,0,0,19.2,3.333333333333333,1,3,Colmar Houssen airport,38.583833310944016,1
155b4225-a616-4f5e-ad82-a692458165d1,Singapore,Singapore,Asia,"A bustling cityscape where futuristic architecture meets lush green spaces, offering a vibrant blend of cultures and flavors at every corner.",1.2899175,103.8519072,20.0,Luxury,80,60,60,60,80,100,80,100,40,0,0,0,3,1,0,0,1,0,28.7,27.666666666666668,0,4,Paya Lebar Air Base,10.157177282752013,0
5ace1d13-c389-478b-927a-71d8f98a903d,Piran,Slovenia,Europe,Charming cobblestone streets lead you through a town where the sea breeze mingles with the aroma of fresh seafood and vibrant markets.,45.5284919,13.5684485,20.0,Mid-range,80,60,80,80,60,80,60,60,80,0,0,0,2,1,1,0,0,0,24.1,6.633333333333333,1,5,Portorož Airport,7.290477307412907,0
771fda85-870b-4dcb-ad42-763aa6a6fbb0,Valletta,Malta,Europe,Sun-drenched streets lined with baroque architecture and vibrant markets create a charming blend of history and lively Mediterranean spirit.,35.8989979,14.5136607,20.0,Mid-range,100,40,60,60,60,80,60,60,40,0,0,0,2,1,1,0,0,0,26.73333333333333,13.6,1,5,Malta International Airport,5.648784590541748,0
12720905-6c3e-4a3f-a805-6b30460843b6,Thessaloniki,Greece,Europe,"Lively waterfronts, aromatic tavernas, and ancient ruins blend seamlessly with a youthful energy that invites exploration and leisurely enjoyment.",40.6403167,22.9352716,20.0,Mid-range,80,60,60,60,80,100,60,80,40,0,0,0,2,1,1,0,1,0,26.7,7.8,0,4,Thessaloniki Macedonia International Airport,13.774690369344656,0
283c7ec9-07c6-4f35-a986-495aea46ee15,Georgetown,Guyana,South_America,"Lush greenery and colonial architecture meet vibrant local markets and a lively Caribbean vibe, offering a unique and welcoming atmosphere.",6.8137426,-58.1624465,20.0,Budget,80,80,100,40,60,60,60,60,80,0,0,0,1,1,1,0,0,0,27.83333333333333,27.23333333333333,0,5,Eugene F. Correia International Airport,6.298226449444575,1
2756e007-9330-4d8c-8e7c-1cb2bfd5a1fe,Jeju Island,South Korea,Asia,"Lush green landscapes, volcanic craters, and serene beaches create a tranquil escape, perfect for soaking in natural beauty and peaceful vibes.",33.38034745,126.54825445912049,20.0,Mid-range,60,80,100,80,60,80,80,40,80,0,0,0,2,1,0,0,1,0,25.46666666666667,7.333333333333333,0,4,Jeongseok Airport,15.352210980503935,1
df9d25a4-a439-4fe3-9b2a-1f1caba531b9,Valencia,Spain,Europe,"Sun-drenched streets lined with orange trees, vibrant markets, and a seamless blend of ancient history and modern art create a captivating atmosphere.",39.4697065,-0.3763353,20.0,Mid-range,80,60,80,80,80,100,60,80,60,0,0,0,2,1,1,0,1,0,25.73333333333333,12.233333333333334,0,5,Valencia Airport,9.295526211445557,0
45ad5739-256e-4580-aead-6148dc11f958,Hoi An,Vietnam,Asia,"Charming lantern-lit streets, bustling markets, and the scent of fresh herbs create an inviting atmosphere that feels both timeless and vibrant.",15.8795863,108.3319406,20.0,Budget,100,60,60,60,40,100,60,40,80,0,0,0,1,1,1,0,0,0,30.166666666666668,22.73333333333333,1,4,Da Nang International Airport,23.14789584028443,0
333aa3ee-33b8-4db0-b7a4-6fe335b33f37,Kolkata,India,Asia,"Bustling streets filled with the aroma of spices, vibrant markets, and colonial architecture create an inviting atmosphere full of life and history.",22.5726459,88.3638953,20.0,Budget,100,40,60,20,60,100,60,80,40,0,0,0,1,1,1,0,1,0,29.866666666666664,21.1,1,4,Netaji Subhash Chandra Bose International Airport,12.469559163819255,0
c7b3c669-a693-485a-96ec-6b1147b80d11,Budapest,Hungary,Europe,"Charming streets lined with historic architecture and lively ruin bars create a welcoming vibe, where tradition meets a vibrant, modern energy.",47.48138955,19.14609412691246,20.0,Mid-range,100,60,60,20,100,80,100,80,40,0,0,0,2,1,1,0,1,0,22.933333333333334,2.433333333333333,0,4,Budapest Liszt Ferenc International Airport,10.434634137493184,0
17468e16-e2af-4354-964d-a941191771d7,Yogyakarta,Indonesia,Asia,"A vibrant blend of traditional Javanese culture and modern energy, where bustling markets and ancient temples create a rich sensory tapestry.",-7.8011998,110.3646608,20.0,Budget,100,60,80,40,60,80,60,60,60,1,1,1,1,1,1,0,1,0,27.633333333333336,27.53333333333333,1,5,Adisutjipto Airport,7.558427905646371,0
8418d235-a78e-43fc-bdae-3f7c45ac67ca,Monaco,Monaco,Europe,"Glamorous streets lined with luxury cars and yachts, where the Mediterranean breeze mingles with the scent of high-end cuisine and opulence.",43.7323492,7.4276832,20.0,Luxury,80,40,60,60,100,80,60,100,40,0,0,0,3,0,1,0,0,1,23.866666666666664,8.799999999999999,0,4,Nice-Côte d'Azur Airport,18.910313590829304,0
f3126fe6-bf7d-442c-951e-4c59aa34c417,Rome,Italy,Europe,"Ancient ruins stand proudly amidst bustling piazzas, where the aroma of fresh pasta and the echoes of street musicians fill the air.",41.8933203,12.4829321,20.0,Mid-range,100,60,60,40,80,100,60,100,40,0,0,0,2,1,0,0,1,0,25.5,8.966666666666667,0,5,Rome Urbe Airport,6.727772662494337,0
54ee0cc1-402d-42fc-a453-e5a7d5089247,Stockholm,Sweden,Europe,"Charming waterfronts, crisp Nordic air, and a seamless blend of old-world charm and modern design create a unique and inviting atmosphere.",59.3251172,18.0710935,20.0,Luxury,80,60,80,40,80,80,60,100,60,0,0,1,3,1,1,0,1,0,17.266666666666666,-0.0333333333333333,0,5,Stockholm-Bromma Airport,8.027140866555307,0
9226f6e6-02df-48b5-be28-c7d65ae84d5e,Taipei,Taiwan,Asia,"Bustling night markets filled with tantalizing aromas, serene temples, and lush green hills create a vibrant and welcoming atmosphere.",25.0375198,121.5636796,20.0,Mid-range,80,60,60,40,80,100,60,80,40,0,0,0,2,1,1,0,1,0,30.1,17.633333333333333,0,5,Taipei Songshan Airport,3.73509672622591,0
a81ab0eb-12ab-4dd4-97c6-cc74e1c0cbaa,Tokyo,Japan,Asia,"Neon-lit streets pulse with energy, while serene gardens and ancient temples offer a peaceful escape, creating a captivating blend of modernity and tradition.",35.6768601,139.7638947,20.0,Luxury,100,40,40,20,100,100,60,100,20,0,0,1,3,1,0,1,1,0,25.7,7.033333333333334,0,4,Tokyo Haneda International Airport,13.926856622488842,0
46a4a4b9-6bf0-4461-9c58-f1961e60a1e9,Noumea,New Caledonia,Oceania,"A tropical blend of French sophistication and island charm, with vibrant markets, azure waters, and a laid-back, sun-soaked vibe.",-22.2745264,166.442419,20.0,Luxury,60,60,80,80,60,80,60,60,60,0,0,0,3,1,0,0,1,0,20.9,26.266666666666666,1,5,Nouméa Magenta Airport,3.618144667824248,1
3945728c-0c92-4d4f-aef2-000b2e1a657f,Palermo,Italy,Europe,"Sun-drenched streets filled with the aroma of street food, lively markets, and stunning architecture create an enchanting and vibrant atmosphere.",38.1112268,13.3524434,20.0,Mid-range,80,40,60,60,60,100,60,80,40,0,0,0,2,1,1,0,1,0,25.933333333333334,13.366666666666667,1,5,Palermo-Boccadifalco Airport,3.424981419320858,0
33bfc52d-e48e-4738-be09-ddfa3cfb6603,Sicily,Italy,Europe,"Sun-drenched landscapes, aromatic citrus groves, and vibrant markets create a sensory feast, while ancient ruins whisper stories of a rich, layered history.",37.587794,14.155048,20.0,Mid-range,100,60,80,80,60,100,60,60,60,0,0,0,2,1,0,1,1,0,23.8,6.966666666666666,1,2,Sigonella Navy Air Base,70.78980127464823,0
84861e0c-6b58-4b8f-a16e-ca371a9c01cd,Amman,Jordan,Middle_East,"Bustling markets, aromatic spices, and ancient ruins create a vibrant atmosphere that blends history with the lively rhythms of modern life.",31.9515694,35.9239625,20.0,Mid-range,80,60,60,20,60,80,60,80,40,0,0,0,2,1,1,0,1,0,27.0,9.9,1,5,Amman Civil (Marka International) Airport,6.79961417184444,0
4a16fb5b-86c8-483f-a0a2-d4b5619efd0e,Nairobi,Kenya,Africa,"Bustling streets filled with colorful markets, the aroma of street food, and a lively mix of cultures create a dynamic urban experience.",-1.30261485,36.82884201813725,20.0,Mid-range,80,80,100,20,60,60,60,80,40,0,0,0,2,1,1,0,1,0,18.3,20.8,0,5,Nairobi Wilson Airport,2.63622140808495,1
426c4735-6fab-4da6-9c81-6307beb32236,Panama City,Panama,North_America,Humid evenings and skyscraper views contrast beautifully with colorful historic quarters and lush jungle landscapes within easy reach.,8.9714493,-79.5341802,20.0,Mid-range,80,60,80,60,80,80,60,80,40,0,0,0,2,1,1,0,1,0,27.0,27.1,0,5,Marcos A. Gelabert International Airport,2.362331863928259,0
900f7bad-dc7e-4017-a6a9-16e3211d110b,Nagoya,Japan,Asia,"A city where modern skyscrapers meet historic castles, offering a rich blend of tradition and innovation with a laid-back vibe.",35.1851045,136.8998438,20.0,Luxury,80,40,60,20,60,80,60,80,40,0,0,1,3,1,1,0,0,0,26.26666666666667,5.766666666666666,1,5,Nagoya Airport / JASDF Komaki Air Base,8.159437956700515,0
03c5ff46-5be3-423a-a2e1-f0ede04ca279,Fukuoka,Japan,Asia,"Coastal breezes blend with vibrant city life, offering a friendly atmosphere, delicious street food, and a seamless mix of modern and traditional experiences.",33.6251241,130.6180016,20.0,Mid-range,80,60,60,60,80,100,60,80,40,0,0,1,2,1,1,0,1,0,26.100000000000005,6.7,0,4,Fukuoka Airport,16.069013489898495,0
74275da0-d33c-4624-b50f-f3d254eaf9a8,Maseru,Lesotho,Africa,"Surrounded by dramatic landscapes, this city offers a blend of bustling markets, friendly locals, and a unique cultural tapestry to explore.",-29.310054,27.478222,20.0,Budget,60,80,80,20,40,40,40,40,60,0,0,0,1,1,1,0,0,0,7.7,18.433333333333334,0,4,Moshoeshoe I International Airport,18.39505537699881,1
59358844-732e-44cc-8fc8-fd7266474a8f,Mexico City,Mexico,North_America,"Vibrant streets teeming with life, colorful markets, and the aroma of street food create an eclectic and exhilarating urban experience.",19.3207722,-99.1514677512441,20.0,Mid-range,100,60,60,20,100,100,60,100,40,0,0,0,2,1,0,1,1,0,17.599999999999998,14.9,0,4,Benito Juárez International Airport,15.244108462500588,0
ecfe7100-f347-4fc1-bae0-f7d38c9a82ac,Doha,Qatar,Middle_East,"Modern architecture meets traditional souks, with the aroma of spices and the warm desert breeze creating a welcoming and vibrant atmosphere.",25.2856329,51.5264162,20.0,Luxury,80,60,40,60,60,80,80,100,40,0,0,0,3,1,1,0,1,0,36.833333333333336,20.1,1,5,Doha International Airport,4.751047094490258,0
5e646c11-3635-4227-94f1-9c1872ce3ee8,Astana,Kazakhstan,Asia,"Futuristic architecture and expansive boulevards create a surreal atmosphere, blending modernity with cultural depth, offering an intriguing and unique urban experience.",51.1159933,71.46770587485393,20.0,Mid-range,60,40,40,20,60,60,60,80,40,0,0,0,2,1,1,0,1,0,20.166666666666668,-12.333333333333334,0,5,Nursultan Nazarbayev International Airport,9.89180402640076,0
7a01b324-f2b0-4249-a575-16a5eaa65a33,Luang Prabang,Laos,Asia,"Serene streets lined with French colonial architecture, vibrant night markets, and the gentle flow of the Mekong River create a peaceful, timeless charm.",19.8887438,102.135898,20.0,Budget,100,60,80,20,40,80,80,40,100,0,0,0,1,1,1,0,0,0,28.8,22.73333333333333,1,5,Luang Phabang International Airport,2.7921112657260303,1
a5d58454-66d9-466a-870f-a490ad04b2fd,Oaxaca,Mexico,North_America,"Colorful markets, aromatic street food, and vibrant festivals create an immersive experience that feels both lively and deeply rooted in tradition.",17.0,-96.5,20.0,Mid-range,100,60,80,40,60,100,60,60,60,0,0,0,2,1,1,0,1,0,21.133333333333336,18.633333333333333,1,4,Xoxocotlán International Airport,23.603575590468644,0
b4770bbe-7d7e-400d-9e43-c208fad6fdee,Kaunas,Lithuania,Europe,"Charming cobblestone streets, vibrant street art, and a laid-back vibe invite you to explore its rich history and creative energy.",54.8982139,23.9044817,20.0,Budget,80,40,60,20,60,60,60,60,60,0,0,0,1,1,1,0,0,0,18.33333333333333,-0.6,1,4,Kaunas International Airport,13.640640525181604,0
f33d7ecf-5952-4341-80cd-37c6d1b9b092,Podgorica,Montenegro,Europe,"A blend of modern and traditional vibes, where lively streets meet serene parks, offering a warm and welcoming atmosphere.",42.4415238,19.2621081,20.0,Budget,60,60,80,40,60,60,60,60,60,0,0,0,1,1,1,0,0,0,28.0,7.899999999999999,1,5,Podgorica Airport / Podgorica Golubovci Airbase,9.169917358019744,0
99b5a71f-eead-4050-a7a4-df5e16a42c0b,Kuching,Malaysia,Asia,"A blend of colonial charm and vibrant markets, with lush greenery and the gentle flow of the Sarawak River creating a serene atmosphere.",1.5597561,110.345397,20.0,Budget,80,60,80,40,60,80,60,60,80,0,0,0,1,1,1,0,0,0,27.4,26.46666666666667,1,5,Kuching International Airport,8.092254784297133,0
6eeed41e-07f1-4e44-85d3-a04a06bb3500,Port Louis,Mauritius,Africa,"A bustling port city where vibrant markets, colonial architecture, and the scent of street food create a lively and colorful atmosphere.",-20.1624522,57.5028044,20.0,Mid-range,80,60,80,100,60,80,60,60,40,0,0,0,2,1,0,0,1,0,19.2,24.0,1,3,Sir Seewoosagur Ramgoolam International Airport,35.240849132908835,1
5e2fff6d-15ae-4deb-80a8-6f18d730d9f8,Beira,Mozambique,Africa,Warm ocean breezes mix with the vibrant energy of local markets and the relaxed charm of coastal streets lined with casuarina trees.,-19.828707,34.841782,20.0,Budget,60,60,60,60,40,60,40,40,60,0,0,0,1,1,1,0,0,0,21.633333333333336,28.03333333333333,1,5,Beira Airport,7.766212738483717,1
3ecbe7bd-d9a0-4690-9ab2-5e143f92fe64,Salalah,Oman,Middle_East,"Lush green landscapes meet the Arabian Sea, creating a serene atmosphere filled with the scent of frankincense and the sound of gentle waves.",17.0174945,54.1010923,20.0,Mid-range,60,60,100,80,40,60,60,40,80,0,0,0,2,1,0,0,1,0,27.366666666666664,24.53333333333333,1,5,Salalah Airport,2.5775321431980136,1
5af283b6-2a6b-4fb1-893d-953529dbad3b,Pretoria,South Africa,Africa,"Wide tree-lined avenues and vibrant jacaranda blooms create a serene backdrop for exploring cultural landmarks and lively markets in a warm, welcoming atmosphere.",-25.7459277,28.1879101,20.0,Mid-range,80,60,80,20,60,80,60,80,40,0,0,0,2,1,1,0,0,0,13.733333333333334,22.73333333333333,1,5,Swartkop Air Force Base,7.465400025213971,0
cc659b5c-096d-4c4e-be39-a30676e948d9,Monterrey,Mexico,North_America,"Nestled between dramatic mountains, the city offers a vibrant blend of modern life and cultural richness, with lively streets and friendly locals.",25.6802019,-100.315258,20.0,Mid-range,80,60,80,20,80,80,60,80,40,0,0,0,2,1,1,0,0,0,28.5,15.8,0,4,Del Norte International Airport,22.05455362606616,0
976ddd49-62ec-4b58-8ef1-d079b2f6bcdf,Chisinau,Moldova,Europe,"Tree-lined streets and Soviet-era architecture mix with lively markets and cozy wine bars, offering a unique and welcoming vibe.",47.0245117,28.8322923,20.0,Budget,60,40,60,20,60,60,40,60,60,0,0,0,1,1,1,0,0,0,23.166666666666668,1.1333333333333333,1,4,Chişinău International Airport,13.113617213955353,0
2ea04a64-c0d2-4cad-8923-b83c11109f4b,Oslo,Norway,Europe,"Modern architecture meets stunning natural landscapes, with serene fjords and vibrant city life offering a unique blend of tranquility and excitement.",59.9133301,10.7389701,20.0,Luxury,80,60,80,40,60,80,80,80,60,0,0,0,3,1,1,0,1,0,16.866666666666667,-1.1666666666666667,1,3,"Oslo Airport, Gardermoen",37.09169798067366,0
c0ddb6a7-e9b0-480f-8e05-54b316638198,Paramaribo,Suriname,South_America,"Lush greenery, colonial architecture, and vibrant street markets create a lively atmosphere where tropical warmth meets cultural diversity.",5.82417645,-55.16628130970069,20.0,Budget,80,60,80,40,60,80,60,60,60,0,0,0,1,1,1,0,0,0,26.8,26.33333333333333,1,3,Johan Adolf Pengel International Airport,41.36044894857013,0
5c528d71-fa3e-40c1-b8ac-0cc2724db702,Kotor,Montenegro,Europe,"Winding cobblestone streets and ancient stone walls create a charming, timeless atmosphere, inviting you to explore hidden corners and scenic views.",42.4249205,18.7713332,20.0,Mid-range,80,60,80,60,40,60,60,40,80,0,0,0,2,1,1,0,0,0,24.766666666666666,8.700000000000001,1,5,Tivat Airport,4.539046077945197,1
007e1c9a-9bbf-4560-a8d5-4fb17176b300,Rabat,Morocco,Africa,"A city where historic medinas meet modern boulevards, offering a serene coastal vibe with the scent of sea air and spices.",33.9851778,-6.8461433,20.0,Budget,80,40,60,60,60,80,60,80,60,1,1,1,1,1,1,0,1,0,22.2,12.866666666666667,1,4,Rabat-Salé Airport,11.420929899085484,0
34daf415-739f-45d7-a127-f47f0dcf63f9,Arequipa,Peru,South_America,Charming colonial architecture and vibrant plazas set against a backdrop of volcanic peaks create a captivating blend of history and natural beauty.,-16.3988667,-71.5369607,20.0,Budget,80,60,80,20,60,80,60,60,60,0,0,0,1,1,1,0,1,0,15.533333333333331,15.7,1,5,Rodríguez Ballón International Airport,8.092510097217144,0
aa77dd0f-f294-4af2-9499-547652ef8472,Krakow,Poland,Europe,"Charming cobblestone streets and lively squares invite exploration, while the rich history and vibrant culture create an inviting and warm atmosphere.",50.0619474,19.9368564,20.0,Mid-range,100,40,60,20,80,80,60,80,40,0,0,0,2,1,1,0,1,0,19.7,0.9,0,4,Kraków John Paul II International Airport,10.992878311427516,0
22724026-a52a-4591-ac15-5e3c1aad0bc6,Chiang Rai,Thailand,Asia,"Quiet temples and vibrant markets blend with lush green landscapes, offering a serene yet culturally rich experience for the curious traveler.",19.7589517,99.6734592,20.0,Budget,80,60,80,20,40,80,60,40,80,0,0,0,1,1,1,0,0,0,27.266666666666666,21.33333333333333,1,3,Mae Fah Luang - Chiang Rai International Airport,30.691943274997158,1
96591192-71e5-48cd-bc25-dfc40ad0a497,Maastricht,Netherlands,Europe,"Cobblestone streets and medieval architecture create a charming atmosphere, while lively squares and riverside paths invite leisurely exploration and relaxation.",50.85798545,5.6969881818221095,20.0,Mid-range,80,40,60,20,60,80,60,60,60,0,0,1,2,1,1,0,0,0,18.866666666666664,4.8,1,5,Maastricht Aachen Airport,7.874603635653929,0
8e9cdd1b-520b-4d7c-84d6-ce390886a60d,Christchurch,New Zealand,Oceania,"A city reborn with innovative architecture and lush gardens, offering a mix of urban charm and stunning natural landscapes.",-43.530955,172.6364343,20.0,Mid-range,60,80,80,60,60,60,60,60,60,0,0,1,2,1,0,0,1,0,7.133333333333333,16.733333333333334,0,5,Christchurch International Airport,9.621678816368952,1
4050b3a8-bc31-4a00-a0bc-74ec708a8022,Gotland,Sweden,Europe,"Charming cobblestone streets, medieval ruins, and serene coastal landscapes offer a peaceful escape with a touch of historical intrigue and natural beauty.",57.4174802,18.536957927499856,20.0,Mid-range,80,60,80,80,60,60,60,40,80,0,0,1,2,1,1,0,1,0,16.733333333333334,1.9666666666666668,1,4,Visby Airport,29.558496660736918,1
51573d8c-89d4-469e-b1a6-5be6a389b9d9,St Ives,United Kingdom,Europe,"Charming cobblestone streets wind through art galleries and quaint shops, with the salty sea breeze adding a refreshing touch to your stroll.",50.2149064,-5.4795083,20.0,Mid-range,80,60,80,100,60,60,60,40,80,0,0,0,2,1,1,0,0,0,15.7,8.0,1,4,RNAS Culdrose,21.43361188305596,1
248ce3f4-3c86-4ea3-91f2-0d69f703e1e4,Tromsø,Norway,Europe,"Snow-draped landscapes and vibrant northern lights create a magical atmosphere, while the crisp Arctic air invigorates your senses and spirit.",69.6516345,18.9558585,20.0,Luxury,60,80,100,40,60,60,60,60,80,0,0,0,3,1,0,0,1,0,11.633333333333333,-2.1,0,5,"Tromsø Airport, Langnes",3.799166212666459,1
3aece1d2-640d-478c-97cb-7b2af24c0d4b,Granada,Nicaragua,North_America,"Cobblestone streets lined with colorful colonial buildings and the distant scent of tropical fruits create a charming, laid-back atmosphere.",11.9303801,-85.9535897,20.0,Budget,80,60,80,40,60,80,60,60,60,0,0,0,1,1,1,0,0,0,27.666666666666668,27.1,1,3,Augusto C. Sandino (Managua) International Airport,33.10279700246888,0
9ebf736e-30eb-4a14-83f6-a171b29422dd,San Juan,Puerto Rico,North_America,"Cobblestone streets lined with colorful colonial buildings, lively salsa rhythms, and the scent of ocean breezes create a vibrant and welcoming atmosphere.",18.38423905,-66.05343997364733,20.0,Mid-range,80,60,60,100,80,80,60,80,40,0,0,0,2,1,1,0,1,0,28.666666666666668,25.933333333333334,0,5,Luis Munoz Marin International Airport,8.203820398428318,0
c6df2a0a-5804-4782-980c-b785baff6338,Salt Lake City,United States,North_America,"Surrounded by stunning mountains, this city offers a blend of vibrant urban life and serene natural beauty, perfect for outdoor enthusiasts.",40.7596198,-111.886797,20.0,Mid-range,60,80,100,20,60,60,80,60,80,0,0,0,2,1,1,0,1,0,26.4,1.1666666666666667,0,5,Salt Lake City International Airport,8.484715014515116,1
2369b939-7343-43a5-939d-8883c2380da4,Asunción,Paraguay,South_America,"Stroll through sun-dappled streets, where lively markets and the scent of grilled meats create a warm, inviting atmosphere.",-25.2800459,-57.6343814,20.0,Budget,60,40,60,20,60,60,40,60,60,0,0,0,1,1,1,0,0,0,19.133333333333333,27.8,1,4,Aeropuerto Internacional Silvio Pettirossi,12.400620307593648,0
43fc0ee7-5983-4c3c-af37-93f16a8561e1,Manila,Philippines,Asia,"Bustling streets filled with vibrant jeepneys and the aroma of street food create an exciting, sensory-rich experience that's uniquely captivating.",14.5904492,120.9803621,20.0,Budget,80,60,40,40,80,80,60,80,20,0,0,0,1,1,1,0,1,0,29.066666666666663,27.266666666666666,0,4,Ninoy Aquino International Airport,10.051354465437258,0
20d1bd3e-dd04-4d5a-a734-32dea79ec466,Bern,Switzerland,Europe,"Charming cobblestone streets wind through medieval architecture, while the gentle flow of the river creates a serene backdrop for leisurely exploration.",46.9484742,7.4521749,20.0,Luxury,80,60,80,20,60,80,80,80,60,0,0,0,3,1,1,0,1,0,19.2,2.266666666666667,1,5,Bern Airport,5.296741677533102,0
4c62d957-8e4e-4558-beea-2bf8178c5463,Catania,Italy,Europe,"Sun-soaked streets filled with the aroma of fresh seafood, lively markets, and the dramatic backdrop of a smoking volcano create a unique atmosphere.",37.5023612,15.0873718,20.0,Mid-range,80,60,80,60,60,100,60,60,40,0,0,0,2,1,1,0,1,0,26.133333333333336,11.066666666666668,1,5,Catania-Fontanarossa Airport,4.365681540318949,0
3b685f46-cdb6-497b-865e-2cd7657a6830,Davao,Philippines,Asia,"Lush landscapes meet urban vibrancy, with bustling markets, serene parks, and the scent of tropical fruits filling the air.",7.0648306,125.6080623,20.0,Budget,60,80,100,60,60,80,60,60,80,0,0,0,1,1,1,0,1,0,28.03333333333333,27.2,0,5,Francisco Bangoy International Airport,7.941538733927472,1
43b173aa-a4f5-4676-9434-bacadf6d49ff,Porto,Portugal,Europe,"Charming riverside streets, vibrant tiles, and the rich aroma of port wine create a warm and inviting atmosphere perfect for leisurely exploration.",41.1494512,-8.6107884,20.0,Mid-range,80,60,60,60,80,100,60,80,60,0,0,0,2,1,1,0,1,0,19.33333333333333,11.0,0,4,Francisco de Sá Carneiro Airport,12.458618001845712,0
4fc0ec2d-41b6-44d1-9c67-16f9caf9a3f1,Azores,Portugal,Europe,"Lush volcanic landscapes, tranquil ocean vistas, and charming villages create a serene atmosphere perfect for unwinding and connecting with nature.",37.80855645,-25.47313739124529,20.0,Mid-range,60,80,100,60,40,80,60,40,100,0,0,0,2,1,0,1,1,0,21.3,15.633333333333333,0,4,João Paulo II Airport,21.126861876600373,1
c6f2dcd7-e2f4-4b91-b737-717593827384,Freetown,Sierra Leone,Africa,"Lively streets filled with vibrant markets, friendly locals, and the rhythmic sounds of the ocean create a welcoming and dynamic atmosphere.",8.479004,-13.26795,20.0,Budget,60,60,80,80,60,60,40,40,60,0,0,0,1,1,1,0,0,0,26.633333333333336,27.7,1,4,Lungi International Airport,17.234027756617085,1
6e46b45f-19d2-43ff-9a08-f5c4b59e1f22,Laval,Quebec,North_America,"A blend of urban charm and natural beauty, with lush parks and vibrant cultural spots offering a refreshing escape from the city rush.",45.60558895,-73.73456014508847,20.0,Mid-range,60,60,60,40,60,60,60,60,40,0,0,0,2,1,1,0,0,0,21.166666666666668,-6.133333333333333,1,4,Montreal / Pierre Elliott Trudeau International Airport,15.329157587317162,0
7f92c683-b2a3-4058-a2dc-758c1d230a26,Saint-Denis,Réunion,Africa,"A lively mix of Creole culture, bustling markets, and lush mountain backdrops create a vibrant and welcoming atmosphere full of discovery.",-20.8799889,55.448137,20.0,Mid-range,80,80,100,80,60,80,60,60,60,0,0,0,2,1,1,0,1,0,22.0,26.6,0,5,Roland Garros Airport,7.436149224464884,1
6ceb9976-69b0-49a0-b91d-ac48234e2902,Constanta,Romania,Europe,"Golden beaches meet historic architecture, offering a blend of sun-soaked relaxation and the charm of ancient ruins and lively promenades.",44.1767161,28.6507598,20.0,Budget,60,60,60,80,60,80,60,60,40,0,0,0,1,1,1,0,0,0,23.83333333333333,4.266666666666667,1,4,Mihail Kogălniceanu International Airport,24.34586148052163,0
80ed0bdd-62c4-4068-88c6-3eba6e3c4e46,Puerto Vallarta,Mexico,North_America,"Golden beaches meet the lush Sierra Madre mountains, creating a vibrant yet laid-back atmosphere filled with colorful markets and lively nightlife.",20.6407176,-105.220306,20.0,Mid-range,60,80,80,100,80,80,80,60,60,0,0,0,2,1,1,0,1,0,25.3,21.2,0,5,Puerto Vallarta International Airport,5.618854028603662,1
933a8b39-e129-41f3-b6ab-3f58d695536b,Cape Town,South Africa,Africa,"A vibrant coastal city surrounded by rugged mountains and pristine beaches, offering laid-back afternoons, diverse cultures, and breathtaking views.",-33.9288301,18.4172197,20.0,Mid-range,80,80,100,80,80,80,60,80,60,0,0,0,2,1,0,1,1,0,12.9,21.2,0,5,Ysterplaat Air Force Base,8.131097931496232,1
1c1ede32-515d-4a46-8019-15e3196afd18,Castries,Saint Lucia,North_America,"Colorful markets, ocean breezes, and lively street music create a vibrant atmosphere, inviting you to explore and unwind at your own pace.",13.90904385,-60.97792414113452,20.0,Mid-range,60,80,100,100,60,80,80,60,80,0,0,0,2,1,1,0,1,0,27.7,25.766666666666666,0,4,George F. L. Charles Airport,12.465210690726536,1
ef66a584-fc99-4c05-af1a-263a6f5cbacf,São Tomé,São Tomé and Príncipe,Africa,"Lush rainforests, tranquil beaches, and the gentle rhythm of island life create a serene escape filled with natural beauty and warmth.",0.3389242,6.7313031,20.0,Mid-range,60,80,100,80,40,60,60,40,80,0,0,0,2,1,0,1,1,0,25.266666666666666,26.633333333333336,0,5,São Tomé International Airport,4.856370361076025,1
f7c802c7-e3cb-4922-ae40-a14f5ea56907,Madrid,Spain,Europe,"Vibrant streets filled with lively tapas bars, stunning architecture, and a rich tapestry of history create an inviting and energetic atmosphere.",40.4167047,-3.7035825,20.0,Mid-range,100,60,40,20,100,100,60,100,40,0,0,0,2,1,1,0,1,0,26.433333333333334,7.733333333333333,0,5,Madrid-Cuatro Vientos Airport,8.594877967781033,0
ddea7cd4-1b80-46f6-a51d-2649a27cba85,Nantes,France,Europe,"A city where historic charm meets modern creativity, with cobblestone streets, vibrant art scenes, and the gentle flow of the Loire River.",47.2186371,-1.5541362,20.0,Mid-range,80,40,60,40,60,80,60,80,60,0,0,0,2,1,1,0,1,0,19.566666666666663,7.166666666666667,1,5,Nantes Atlantique Airport,8.440294796578609,0
4ebafc38-97b9-485a-842f-df2e3fc08ab4,Victoria,Seychelles,Africa,"Lush tropical landscapes meet the vibrant colors of bustling markets, offering a sensory feast of exotic flavors and warm ocean breezes.",-4.6232085,55.452359,20.0,Luxury,60,80,100,100,60,80,80,40,80,0,0,0,3,1,0,0,1,0,26.766666666666666,27.73333333333333,0,5,Seychelles International Airport,9.568545290130006,1
8ec82bed-8ce6-43b4-8318-4df1c2b36399,Ljubljana,Slovenia,Europe,"Charming cobblestone streets, vibrant riverfront cafés, and lush green spaces offer a welcoming atmosphere that's both lively and relaxing.",46.0500268,14.5069289,20.0,Mid-range,80,60,80,20,60,80,60,80,60,0,0,0,2,1,1,0,1,0,22.166666666666668,2.733333333333333,1,4,Ljubljana Jože Pučnik Airport,19.682169294701488,0
702003ed-543f-4431-acea-79b044373c31,Chengdu,China,Asia,"A lively blend of spicy street food aromas, lush green parks, and the gentle charm of giant pandas creates an inviting, laid-back atmosphere.",30.6598628,104.0633717,20.0,Mid-range,100,60,80,20,60,100,60,80,40,0,0,0,2,1,0,0,1,0,27.03333333333333,8.966666666666667,1,4,Chengdu Huangtianba Air Base,11.961234840950167,0
7b317d9c-9f46-43cc-a3db-5a5072021732,Menorca,Spain,Europe,"Golden beaches meet turquoise waters, offering a tranquil escape with gentle breezes, charming villages, and the scent of pine forests in the air.",39.949257200000005,4.0499641751186415,20.0,Mid-range,60,60,80,100,60,80,80,40,80,0,0,0,2,1,1,0,1,0,24.666666666666668,11.633333333333333,1,4,Menorca Airport,17.317096553382417,1
510ac85b-7867-4b58-bc21-130b533ae441,Stone Town,Tanzania,Africa,"Winding alleys filled with vibrant markets, the aroma of spices, and the sound of distant waves create an atmosphere both lively and enchanting.",-6.16265285,39.18965515249984,20.0,Budget,100,60,60,80,60,80,60,60,60,0,0,0,1,1,1,0,0,0,25.933333333333334,28.46666666666667,1,5,Abeid Amani Karume International Airport,7.6653033906611,0
3618d1dc-af2a-4646-94d2-5bc387158dbe,Johannesburg,South Africa,Africa,"A bustling urban landscape with vibrant street art, diverse culinary delights, and a palpable energy that captures the essence of modern African city life.",-26.205,28.049722,20.0,Mid-range,80,60,60,20,80,80,60,100,40,0,0,0,2,1,0,0,1,0,11.933333333333332,20.133333333333336,0,4,Rand Airport,10.9475720511133,0
b5c78cdb-4482-4686-9aa8-10d848aaf90d,Busan,South Korea,Asia,"Coastal breezes mix with the scent of street food, while vibrant markets and serene temples create a lively yet calming atmosphere.",35.1799528,129.0752365,20.0,Mid-range,80,60,80,80,80,100,60,80,40,0,0,0,2,1,1,0,1,0,24.7,4.9,0,4,Gimhae International Airport,12.47248153525029,0
f8cceb46-257d-4b51-b34a-4cba69ace227,Koh Lanta,Thailand,Asia,"Golden beaches, gentle waves, and lush greenery create a serene escape where you can unwind and soak in the tranquil island vibe.",13.8212743,100.6306935,20.0,Budget,60,80,80,100,60,80,80,40,80,0,0,0,1,1,1,0,1,0,29.666666666666668,27.73333333333333,0,4,Don Mueang International Airport,10.47207691028447,1
623961cc-5553-4afa-842e-4af31b2a305c,Mumbai,India,Asia,"A bustling metropolis where vibrant street life, aromatic food stalls, and historic landmarks blend with a dynamic energy that never sleeps.",19.054999,72.8692035,20.0,Mid-range,100,60,40,60,80,100,60,100,20,0,0,0,2,1,0,0,1,0,28.53333333333333,26.5,0,5,Chhatrapati Shivaji International Airport,3.749821331045364,0
37247be1-606e-4142-a129-bf5d3efbd197,Istanbul,Turkey,Europe,"A captivating blend of East and West, with vibrant bazaars, aromatic spices, historic mosques, and the serene Bosphorus weaving through daily life.",41.006381,28.9758715,20.0,Mid-range,100,60,60,40,80,100,60,100,40,0,0,0,2,1,0,1,1,0,25.266666666666666,8.233333333333333,0,4,İstanbul Atatürk Airport,13.33384106424224,0
72a44cc1-8aff-4424-95a0-81afd9aa6db1,Seville,Spain,Europe,"Sun-drenched plazas, the aroma of orange blossoms, and the passionate rhythm of flamenco create an enchanting and lively atmosphere.",37.3886303,-5.9953403,20.0,Mid-range,100,60,40,20,80,100,60,80,40,0,0,0,2,1,1,0,1,0,27.066666666666663,11.666666666666666,0,5,Sevilla Airport,9.60245753857365,0
e90eff18-779e-4ad9-8f75-944a034c0600,Bangkok,Thailand,Asia,Busy streets filled with vibrant markets and aromatic street food stalls create an exhilarating atmosphere that's both chaotic and captivating.,13.7524938,100.4935089,20.0,Budget,100,60,40,40,100,100,80,100,20,0,0,0,1,0,0,1,1,0,29.6,28.133333333333336,0,4,Don Mueang International Airport,21.612583503644203,0
5eb2414d-ccc4-4665-b86a-f463c43a9c1b,Belfast,United Kingdom,Europe,"Cozy pubs, historic streets, and the lively spirit of its people create an inviting and culturally rich atmosphere full of stories.",54.596391,-5.9301829,20.0,Mid-range,80,60,60,40,60,80,60,80,40,0,0,0,2,1,1,0,1,0,15.033333333333331,5.933333333333334,1,5,George Best Belfast City Airport,4.430216434781504,0
d9f5aa87-6ce6-4675-b55c-e64635035d90,Odessa,Ukraine,Europe,"Charming cobblestone streets, lively markets, and the gentle sea breeze create a relaxed yet vibrant atmosphere perfect for unwinding and exploring.",46.4843023,30.7322878,20.0,Budget,80,60,60,80,80,80,60,80,40,0,0,0,1,1,1,0,1,0,23.566666666666663,2.0,0,5,Odessa International Airport,7.690656578317887,0
2ad8ee24-69aa-4e79-8b48-b459779c5987,Zanzibar Town,Tanzania,Africa,Winding streets filled with the aroma of spices and the sound of Swahili music create an enchanting and vibrant atmosphere.,-6.15956165,39.2009686,20.0,Mid-range,80,60,80,100,60,80,60,60,80,0,0,0,2,1,1,0,1,0,25.933333333333334,28.46666666666667,1,5,Abeid Amani Karume International Airport,7.431823162092655,1
3b81e08f-9410-4898-9781-432030bad762,Antananarivo,Madagascar,Africa,"Bustling streets filled with lively markets and the aroma of street food create an energetic vibe, surrounded by rolling hills and unique architecture.",-18.9100122,47.5255809,20.0,Budget,80,80,100,40,60,60,40,60,80,0,0,0,1,1,0,0,1,0,15.233333333333334,21.166666666666668,0,4,Ivato Airport,13.506464913543244,1
f64d6a04-bf5b-49e9-860f-665d6e7d6ada,Krabi,Thailand,Asia,"Turquoise waters lap against limestone cliffs, while vibrant markets and serene beaches invite you to unwind and explore at your own pace.",8.0634637,98.9162345,20.0,Budget,60,80,100,100,60,80,80,40,80,0,0,0,1,1,1,0,1,0,27.133333333333336,26.5,0,5,Krabi Airport,8.662932312848351,1
d76e7f44-80ab-4a92-918c-80c918d1ae88,Lomé,Togo,Africa,"Bustling markets filled with vibrant textiles and the scent of spices create an energetic atmosphere, while palm-lined beaches offer serene escapes.",6.130419,1.215829,20.0,Budget,60,60,60,60,40,60,40,60,60,0,0,0,1,1,1,0,0,0,26.366666666666664,28.766666666666666,1,5,Lomé–Tokoin International Airport,5.796514634369746,1
184fc244-2725-4a56-894d-bbb80ef207e7,Port of Spain,Trinidad and Tobago,North_America,"Bustling streets filled with lively music and vibrant colors offer a sensory feast, where Caribbean culture and urban energy intertwine seamlessly.",10.6572678,-61.5180173,20.0,Mid-range,80,60,60,80,80,100,60,80,40,0,0,0,2,1,1,0,1,0,27.433333333333334,26.066666666666663,0,4,Piarco International Airport,20.92437478554629,0
aeb41503-ee2c-4678-aa67-33b816e31f68,Muscat,Oman,Middle_East,"Golden desert landscapes meet the azure sea, creating a serene backdrop for exploring traditional souks, grand mosques, and coastal promenades.",23.5882019,58.3829448,20.0,Mid-range,80,60,80,80,40,80,60,60,80,0,0,0,2,1,1,0,1,0,33.666666666666664,22.5,1,4,Muscat International Airport,10.057805304683466,1
671ba175-2610-4435-a449-61f29c414d68,Kyiv,Ukraine,Europe,"Strolling through lively squares and historic streets, you'll feel the vibrant energy of a city rich in culture and warm hospitality.",50.4500336,30.5241361,20.0,Budget,80,60,60,20,80,80,60,80,40,0,0,0,1,1,1,0,1,0,21.53333333333333,-0.8666666666666667,0,5,Ihor Sikorsky Kyiv International Airport (Zhuliany),7.39965964143791,0
128e077c-0b2e-43dc-a395-59dcb2fdabe7,Galle,Sri Lanka,Asia,"Charming cobblestone streets, colonial architecture, and the salty breeze of the ocean create a serene and timeless atmosphere.",6.0328139,80.214955,20.0,Budget,80,60,80,80,40,80,60,60,80,0,0,0,1,1,1,0,0,0,28.83333333333333,27.7,1,4,Koggala Airport,12.43528590109054,1
3abbee3b-52a2-45cc-b745-9720f49fd72a,Gdansk,Poland,Europe,"Charming cobblestone streets and vibrant maritime history meet the salty breeze of the Baltic, creating a welcoming and lively coastal atmosphere.",54.42880315,18.79832701217957,20.0,Mid-range,80,40,60,60,60,80,60,80,40,0,0,0,2,1,1,0,0,0,18.3,1.6333333333333335,1,4,Gdańsk Lech Wałęsa Airport,22.23773769759335,0
fe273668-236b-47ac-a87d-f02f36cd6181,Miami,United States,North_America,"Vibrant streets pulsate with Latin beats, ocean breezes carry the scent of salt and sunscreen, and art deco architecture adds a nostalgic charm.",25.7741728,-80.19362,20.0,Luxury,60,60,60,100,100,80,80,80,40,0,0,0,3,1,1,0,1,0,28.933333333333334,22.0,0,5,Miami International Airport,9.93825870649864,0
c6da2d98-abce-490d-8f70-5eea8253bf62,Svalbard,Norway,Europe,"Vast, icy landscapes and the ethereal glow of the northern lights create a surreal, almost otherworldly experience, inviting deep reflection and awe.",78.7198519,20.3493328,20.0,Luxury,40,100,100,20,20,40,40,20,100,0,0,0,3,0,0,1,1,0,3.7,-9.6,0,1,"Svalbard Airport, Longyear",120.49520743550598,1
1a9464a8-353a-4572-aac3-297de01aa6da,Lapland,Finland,Europe,"Snow-draped landscapes, shimmering northern lights, and cozy log cabins create a magical atmosphere perfect for winter adventures and quiet reflection.",67.69291045,26.728214183162983,20.0,Luxury,60,80,100,20,40,60,60,40,100,0,0,0,3,1,0,1,1,0,14.0,-10.7,0,3,Sodankyla Airport,33.44910313720587,1
4959b5b0-bc55-450f-a2c5-9076efac17a7,Tunis,Tunisia,Africa,"Wander through bustling souks and historic medinas, where the scent of spices and the call to prayer create an enchanting atmosphere.",36.8002068,10.1857757,20.0,Budget,80,60,60,60,60,80,60,60,40,0,0,0,1,1,1,0,0,0,27.8,13.033333333333331,1,5,Tunis Carthage International Airport,6.745095451558241,0
9bb1538a-f6b4-450f-812f-20d1ebc2c6eb,San Francisco,United States,North_America,"Fog-kissed hills, eclectic neighborhoods, and the scent of fresh sea air create an inviting and dynamic atmosphere that's both laid-back and vibrant.",37.7792588,-122.4193286,20.0,Luxury,100,60,80,60,80,100,60,100,40,0,0,0,3,1,1,0,1,0,17.666666666666668,11.266666666666666,0,4,San Francisco International Airport,18.15760293698241,0
0e639efe-ac01-44b3-8716-2da67148d47c,Boston,United States,North_America,"Historic streets meet modern innovation, offering a mix of charming neighborhoods, rich history, and vibrant cultural scenes that invite exploration and discovery.",42.3554334,-71.060511,20.0,Luxury,100,40,60,40,80,80,60,100,40,0,0,0,3,1,1,0,1,0,22.5,1.2,0,5,Logan International Airport,4.383540720118382,0
3b9ab1a4-a090-45f5-b101-a73f33a67a6c,Rotorua,New Zealand,Oceania,"Steam rises from bubbling mud pools and the air is filled with the scent of sulfur, creating a unique geothermal wonderland.",-38.1381493,176.252922,20.0,Mid-range,80,80,100,40,60,60,100,60,60,0,0,1,2,1,1,0,0,0,7.866666666666667,16.566666666666666,0,5,Rotorua Regional Airport,6.463856139535513,1
f52d85c4-fee6-4b7b-a181-fa7b0c8adaa0,El Chaltén,Argentina,South_America,"Nestled amidst rugged peaks and vast landscapes, this charming village offers a sense of tranquility and awe-inspiring natural beauty.",-49.3319564,-72.8860438,20.0,Budget,40,100,100,20,40,60,60,20,80,0,0,0,1,1,0,1,1,0,-3.1333333333333333,4.766666666666667,0,1,El Calafate - Commander Armando Tola International Airport,121.21218262446553,1
4387a20c-e5eb-437f-9afc-23c940594043,Christiansted,U.S. Virgin Islands,North_America,"Charming streets lined with pastel-hued buildings, ocean breezes carrying the scent of salt, and a laid-back Caribbean vibe invite relaxation.",17.7439481,-64.7079823,20.0,Mid-range,60,80,80,100,60,80,60,40,80,0,0,0,2,1,1,0,0,0,28.8,25.8,0,4,Henry E Rohlsen Airport,11.08247418851245,1
558816ef-9f17-4b93-a221-8aac47d03f00,Houston,United States,North_America,"A sprawling city where vibrant cultural districts, lively food scenes, and lush parks create a welcoming atmosphere full of discovery and warmth.",29.7589382,-95.3676974,20.0,Mid-range,80,60,60,40,80,100,60,100,40,0,0,0,2,1,1,0,1,0,29.03333333333333,13.833333333333334,0,4,William P Hobby Airport,15.26259970440958,0
968021b5-7a8a-4e1e-bd31-574dd60a9975,San Diego,United States,North_America,"Sun-drenched beaches, vibrant neighborhoods, and an easygoing vibe invite you to savor ocean breezes and explore diverse, lively cultural spots.",32.7174202,-117.162772,20.0,Mid-range,80,80,80,100,80,80,80,80,60,0,0,0,2,1,1,0,1,0,21.266666666666666,14.566666666666668,0,5,San Diego International Airport,3.1185955740139684,0
59d1b605-e2ed-4069-ab3b-b279346d1582,Ladakh,India,Asia,"Rugged landscapes with towering mountains and serene monasteries create a tranquil yet awe-inspiring atmosphere, perfect for those seeking adventure and peace.",34.0242098,77.2036739,20.0,Budget,80,100,100,20,20,60,60,20,100,0,0,0,1,0,0,1,1,0,17.400000000000002,-4.5,0,3,Leh Kushok Bakula Rimpochee Airport,33.92831151532929,1
c1df028c-84c0-404a-a0c0-4f65e1b25357,Chefchaouen,Morocco,Africa,"Wander through winding blue-washed alleys, breathe in the fresh mountain air, and feel a serene calm envelop you in this charming town.",35.1700832,-5.2766582971063976,20.0,Budget,80,60,80,20,40,80,60,40,80,1,1,1,1,1,1,0,0,0,24.9,14.1,1,3,Sania Ramel Airport,47.334163269365874,0
b53ea9ad-2c8b-4467-9764-1edb3b922ea4,Lviv,Ukraine,Europe,"Cobblestone streets, charming coffeehouses, and a rich tapestry of history and culture create a warm and inviting atmosphere for exploration.",49.841952,24.0315921,20.0,Budget,100,40,60,20,60,80,60,60,60,0,0,0,1,1,1,0,1,0,19.33333333333333,-0.0333333333333333,1,5,Lviv International Airport,6.328413977237661,0
54425ba9-ac85-490b-8064-4260eb382f2c,Nashville,United States,North_America,"Lively streets filled with music and friendly faces, where the aroma of Southern cuisine mingles with the vibrant energy of live performances.",36.1622767,-86.7742984,20.0,Mid-range,80,40,40,20,100,80,60,80,40,0,0,0,2,1,1,0,1,0,26.433333333333334,6.633333333333333,0,5,Nashville International Airport,9.597225202338493,0
af0c0c0e-6e3a-4157-8219-cdbd7fb23a81,Cleveland,United States,North_America,"A city where industrial roots meet cultural renaissance, offering lively arts scenes, lakefront breezes, and a welcoming Midwestern charm.",41.4996574,-81.6936772,20.0,Mid-range,80,40,60,40,60,80,60,60,40,0,0,0,2,1,1,0,0,0,23.2,0.9,1,5,Burke Lakefront Airport,2.164325411031638,0
b4a73043-c9d4-40b3-83df-1ead4d144b4c,Ronda,Spain,Europe,Dramatic cliffs and a historic stone bridge create a breathtaking backdrop for wandering cobblestone streets and savoring local wines in sunlit plazas.,36.7421339,-5.1665916,20.0,Mid-range,80,60,80,20,40,80,60,40,80,0,0,0,2,1,1,0,0,1,26.666666666666668,11.166666666666666,1,3,Málaga-Costa del Sol Airport,59.96934609756168,0
577b9315-b7a1-489f-9f37-c705858b1162,London,United Kingdom,Europe,"Iconic landmarks, bustling markets, and a rich tapestry of culture create a vibrant atmosphere that feels both historic and ever-evolving.",51.4893335,-0.1440550845276872,20.0,Luxury,100,40,60,20,100,100,60,100,40,0,0,0,3,1,0,1,1,0,17.466666666666665,5.866666666666667,0,4,London City Airport,13.912468828618804,0
a658f5c4-f1b4-4592-9bcd-823956973b8d,Rochester,United States,North_America,"Charming and unhurried, with scenic river views, vibrant arts, and a welcoming community vibe that makes you feel right at home.",43.157285,-77.615214,20.0,Mid-range,60,40,60,40,60,60,60,60,60,0,0,0,2,1,1,0,0,0,21.46666666666667,-1.1333333333333333,1,5,Frederick Douglass Greater Rochester International Airport,6.3046487479237925,0
7880793a-92c4-4f87-a64a-f238fe4ef46e,Namibia,Namibia,Africa,"Vast desert landscapes meet rugged coastlines, creating a sense of awe and solitude, while vibrant wildlife offers thrilling encounters in nature.",-23.2335499,17.3231107,20.0,Mid-range,60,100,100,40,40,60,60,40,100,0,0,0,2,0,0,1,1,0,15.9,24.066666666666663,0,2,Eros Airport,73.42628441849504,1
d521e276-3af5-4538-b17b-a1c8836d15b7,Memphis,United States,North_America,"Blues music fills the air as you wander through lively streets, savoring the aroma of smoky barbecue and the warmth of Southern hospitality.",35.1460249,-90.0517638,20.0,Mid-range,80,60,40,20,80,80,60,60,40,0,0,0,2,1,1,0,1,0,27.566666666666663,7.466666666666666,0,4,Memphis International Airport,13.39437934451895,0
bee0bdaf-43b3-4d6e-80a3-eebf8cccb1cc,Ashgabat,Turkmenistan,Asia,"Marble-clad buildings rise against a backdrop of desert landscapes, offering a surreal blend of modernity and tradition with a touch of mystery.",37.9404648,58.3823487,20.0,Luxury,60,40,40,20,40,60,40,60,80,0,0,0,3,1,0,0,1,0,31.600000000000005,5.4,1,5,Ashgabat International Airport,5.481737943899104,0
456e0998-8b34-4b5a-8898-fdd801f472a4,Tulum,Mexico,North_America,"Pristine beaches with turquoise waters meet ancient ruins and vibrant jungle, creating an inviting blend of relaxation and adventure.",20.429647,-87.6529306,20.0,Mid-range,60,80,80,100,60,80,100,40,80,0,0,0,2,1,1,0,1,0,28.7,24.53333333333333,0,4,Felipe Carrillo Puerto International Airport,28.648374437407277,1
a7573be8-bfc0-479c-9baa-7d824d1f9315,Honolulu,United States,Oceania,"Golden beaches meet vibrant city life, where the scent of plumeria and the sounds of ukulele create a laid-back, tropical vibe.",21.304547,-157.855676,20.0,Luxury,80,80,100,100,80,80,80,80,40,0,0,0,3,1,0,1,1,0,27.2,23.766666666666666,0,5,Daniel K Inouye International Airport,7.322782871926979,1
232e9cad-e761-42b2-ad5d-eac5c63500ff,Tashkent,Uzbekistan,Asia,"Wide avenues lined with Soviet-era architecture meet vibrant bazaars, creating a unique blend of history and lively local culture.",41.3123363,69.2787079,20.0,Budget,80,60,60,20,60,80,60,60,40,0,0,0,1,1,1,0,1,0,28.73333333333333,4.3,1,5,Tashkent International Airport,6.056612342905066,0
6c7cf28b-e9b3-4620-985e-e51fb626aa64,Yangshuo,China,Asia,Lush karst mountains and tranquil rivers create a serene backdrop for cycling through rice paddies and exploring vibrant local markets.,24.8630286,110.4871831,20.0,Budget,60,80,100,40,40,60,60,40,80,0,0,0,1,1,1,0,1,0,28.066666666666663,10.566666666666668,0,2,Guilin Liangjiang International Airport,60.06364891708048,1
cdc43353-203d-43ea-91ec-ccdff3e15160,Kuala Lumpur,Malaysia,Asia,"Bustling streets filled with diverse aromas and vibrant markets create a lively atmosphere, blending modern skyscrapers with rich cultural heritage.",3.1526589,101.7022205,20.0,Mid-range,80,60,60,40,80,100,60,100,40,0,0,0,2,1,0,0,1,0,28.366666666666664,27.7,0,4,Sultan Abdul Aziz Shah International Airport,17.187581359025593,0
2a2808ca-2382-4d3e-b28b-af9837c5a3f7,Cornwall,United Kingdom,Europe,"Rugged coastlines, charming villages, and sweeping beaches offer a sense of tranquility and timeless beauty, perfect for unwinding and exploring.",50.4433489,-4.62465658489158,20.0,Mid-range,60,80,100,100,40,60,60,40,80,0,0,0,2,1,1,0,1,0,16.333333333333332,8.1,0,4,Cornwall Airport Newquay,26.256849379930724,1
6ee0fe94-2e9b-46ef-8bfc-5e218132332b,Dhaka,Bangladesh,Asia,"A whirlwind of vibrant street life, bustling markets, and a rich tapestry of history and culture, offering endless sensory experiences.",23.7643863,90.3890144,20.0,Budget,80,40,40,20,60,80,40,60,20,0,0,0,1,1,0,0,1,0,29.399999999999995,20.33333333333333,0,5,Hazrat Shahjalal International Airport,8.82523210531183,0
df941b8b-5907-43b3-bd73-505845313873,Seattle,United States,North_America,"A city where misty mornings blend with vibrant markets and lush green spaces, offering a cozy yet dynamic urban experience.",47.6038321,-122.330062,20.0,Luxury,80,60,80,40,60,80,60,100,40,0,0,0,3,1,0,0,1,0,19.433333333333334,5.833333333333333,1,5,Boeing Field King County International Airport,8.475490467710207,0
48a8a9bd-7834-4db5-931e-151691e32ada,Bishkek,Kyrgyzstan,Asia,Wide boulevards lined with Soviet-era architecture and bustling bazaars create a unique blend of history and vibrant local life.,42.8777895,74.6066926,20.0,Budget,60,80,80,20,60,60,40,60,80,0,0,0,1,1,1,0,0,0,25.23333333333333,-0.1666666666666666,0,4,Kant Air Base,19.73451476084305,1
e0fba8c3-0e00-421a-8a31-c5001184dc97,Siem Reap,Cambodia,Asia,"Ancient temples rise through the jungle mist, while bustling markets and vibrant street food create a lively, sensory-rich experience.",13.3617562,103.8590321,20.0,Budget,100,60,80,20,60,80,60,60,60,0,0,0,1,1,1,0,1,0,28.566666666666663,26.366666666666664,1,3,Siem Reap-Angkor International Airport,39.38990793748399,0
066b90ea-034a-48e3-9011-d2095c02efaa,Valdivia,Chile,South_America,"Riverside charm and lush green landscapes create a serene atmosphere, with the scent of fresh seafood and the sound of birdsong nearby.",-39.8141262,-73.2459859,20.0,Mid-range,60,80,80,60,60,80,60,60,80,0,0,0,2,1,1,0,1,0,7.3,16.066666666666666,0,4,Pichoy Airport,22.8034233549406,1
3f3f5613-56d6-464b-a1de-437c2246292b,Salta,Argentina,South_America,"Stunning mountain landscapes, vibrant local markets, and the warmth of traditional folklore create an inviting and colorful atmosphere.",-25.1076701,-64.3494964,20.0,Mid-range,80,80,100,20,60,80,60,60,80,0,0,0,2,1,1,0,1,0,11.133333333333333,21.066666666666663,0,1,Gobernador Horacio Guzman International Airport,109.6745196714252,1
92098031-bc52-4fac-b1df-2dfe76a8de6c,Split,Croatia,Europe,Wander through ancient stone streets where the Adriatic breeze mingles with lively chatter and the scent of fresh seafood from bustling markets.,43.5116383,16.4399659,20.0,Mid-range,80,60,80,80,80,80,60,60,60,0,0,0,2,1,1,0,1,0,27.266666666666666,9.7,0,4,Split Airport,11.840441645240949,0
a49ee9f6-6273-4716-9985-1ebffd5c328c,Galápagos Islands,Ecuador,South_America,"Pristine landscapes teeming with unique wildlife create an atmosphere of untouched beauty, where every moment feels like an intimate encounter with nature.",-0.62881505,-90.3638752022324,20.0,Luxury,60,100,100,80,20,60,40,20,100,0,0,0,3,0,0,1,1,0,24.03333333333333,25.566666666666663,0,1,General Ulpiano Paez Airport,1057.2449715873945,1
ae00c442-bbff-44db-9385-f8af3eda88b4,Florence,Italy,Europe,"Cobblestone streets filled with art, the aroma of fresh espresso, and vibrant piazzas create a captivating blend of history and modern life.",43.7697955,11.2556404,20.0,Mid-range,100,40,60,20,60,100,60,80,40,0,0,0,2,1,1,0,1,0,25.566666666666663,8.133333333333333,1,5,"Florence Airport, Peretola",6.045938592923403,0
30c3bd69-5bec-4c0b-b009-bd322b13d554,Philadelphia,United States,North_America,"Historic cobblestone streets meet a vibrant arts scene, with lively markets and diverse neighborhoods creating a welcoming and dynamic urban experience.",39.9527237,-75.1635262,20.0,Mid-range,80,40,60,20,80,80,60,80,40,0,0,0,2,1,1,0,1,0,25.266666666666666,3.466666666666667,0,4,Philadelphia International Airport,11.159816931487322,0
04624f1d-9d64-4b83-a228-9914ef03c43e,Bordeaux,France,Europe,"Strolling through sun-dappled streets, you'll find stunning architecture, vibrant markets, and the rich aroma of freshly baked baguettes filling the air.",44.841225,-0.5800364,20.0,Mid-range,80,40,60,40,60,100,60,80,60,0,0,0,2,1,1,0,1,0,21.5,7.900000000000001,1,4,Bordeaux–Mérignac Airport,10.76156548697039,0
4b7bab82-52b8-4827-a591-750c48a47f39,Strasbourg,France,Europe,"Charming cobblestone streets lined with half-timbered houses, the aroma of freshly baked pastries, and the gentle flow of the canals create a fairy-tale ambiance.",48.584614,7.7507127,20.0,Mid-range,100,40,60,20,60,80,60,80,60,0,0,0,2,1,1,0,1,0,20.9,4.166666666666667,1,4,Strasbourg Airport,10.38105006631448,0
5b04742c-8938-413a-9050-370d3bc3115b,Palau,Palau,Oceania,"Crystal-clear waters teeming with marine life, lush forests, and a serene atmosphere offer a tranquil escape for nature lovers and adventurers alike.",5.3783537,132.9102573,20.0,Luxury,60,100,100,100,40,60,60,40,80,0,0,0,3,0,0,1,1,0,26.83333333333333,26.83333333333333,0,1,Palau International Airport,285.50609781415903,1
2302c9dd-263d-434c-8adf-cab28e3ba21d,St. George's,Grenada,North_America,"Colorful streets wind around a picturesque harbor, where the scent of spices mingles with the sea breeze, creating a vibrant, laid-back charm.",12.0535331,-61.751805,20.0,Mid-range,60,60,80,100,60,80,80,40,80,0,0,0,2,1,1,0,1,0,28.266666666666666,26.83333333333333,1,5,Maurice Bishop International Airport,6.639608429874026,1
0db57fc8-4359-415e-b18c-9b9da6d98e3d,Debrecen,Hungary,Europe,"Tree-lined streets, charming squares, and a blend of old-world charm with modern vibrancy create a welcoming and relaxed atmosphere.",47.531399,21.6259782,20.0,Budget,60,40,60,20,60,60,60,60,60,0,0,0,1,1,1,0,0,0,22.6,1.7666666666666668,1,5,Debrecen International Airport,4.793368979254372,0
56bbfddd-b9ea-4b44-a2bc-61b45baba7d7,Jaipur,India,Asia,"A tapestry of vibrant colors and bustling markets, where ancient forts and palaces echo the grandeur of a rich cultural heritage.",26.9154576,75.8189817,20.0,Budget,100,60,60,20,60,80,60,60,40,0,0,0,1,1,1,0,1,0,30.666666666666668,17.633333333333336,1,4,Jaipur International Airport,10.16964059677936,0
1d7edb41-df70-4877-ac88-c1baaa72b923,Crete,Greece,Europe,"Sun-drenched beaches, ancient ruins, and vibrant local markets create a tapestry of experiences that feel both timeless and refreshingly alive.",35.3084952,24.46334231842296,20.0,Mid-range,80,80,100,100,60,100,80,60,80,0,0,0,2,1,0,1,1,0,26.366666666666664,11.966666666666669,0,3,Chania International Airport,37.73242753438775,1
dbac5f44-f433-4f28-b05c-e9b193b346c0,Baltimore,United States,North_America,"Historic cobblestone streets meet vibrant waterfronts, offering a lively mix of seafood aromas, street art, and a welcoming, laid-back vibe.",39.2908816,-76.610759,20.0,Mid-range,80,60,60,40,80,80,60,80,40,0,0,0,2,1,1,0,1,0,25.666666666666668,4.0,0,4,Baltimore/Washington International Thurgood Marshall Airport,13.764063118758862,0
c9154e0a-44ac-4562-aa0e-3081d51e1730,Madang,Papua New Guinea,Oceania,"Tropical breezes, vibrant coral reefs, and lush rainforests create a serene paradise where nature and local culture warmly embrace visitors.",-5.0,145.5,20.0,Budget,80,80,100,80,40,60,40,40,80,0,0,0,1,1,0,0,1,0,25.96666666666667,26.03333333333333,0,3,Madang Airport,39.429995785430414,1
35de48dc-19c9-4e54-b788-da248d0e45d4,Taormina,Italy,Europe,"Dramatic coastal views, ancient ruins, and charming piazzas create a picturesque setting that invites leisurely exploration and indulgent moments.",37.8512218,15.2830191,20.0,Mid-range,80,60,80,80,60,100,60,60,80,0,0,0,2,1,1,0,1,0,26.933333333333334,13.066666666666668,1,3,Reggio Calabria Airport,40.5272148286903,0
66355823-318b-4699-8244-a884d90e3e52,Takayama,Japan,Asia,"Charming wooden houses, serene streets, and the gentle flow of the river create a peaceful atmosphere perfect for unwinding and exploration.",36.1396246,137.2510322,20.0,Mid-range,100,40,80,20,40,80,60,40,80,0,0,1,2,1,1,0,0,0,22.96666666666667,0.5333333333333333,1,3,Toyama Airport,56.84278390077713,0
e8ca28df-95b8-4dd9-9190-28b80725ea25,Phoenix,United States,North_America,"Desert landscapes meet urban sophistication, offering vibrant arts, diverse dining, and endless sunshine, making every visit feel like a warm embrace.",33.4484367,-112.074141,20.0,Mid-range,60,80,80,20,60,60,80,60,60,0,0,0,2,1,1,0,1,0,35.333333333333336,14.466666666666669,0,5,Phoenix Sky Harbor International Airport,6.497623312000228,1
28e1fcbb-ce3c-418e-bb2d-421e3be81b2f,Blantyre,Malawi,Africa,"A city where bustling markets, friendly locals, and the aroma of street food create a vibrant and welcoming atmosphere.",-15.7862543,35.0035694,20.0,Budget,60,60,80,20,40,60,40,60,80,0,0,0,1,1,1,0,0,0,20.6,25.0,1,4,Chileka International Airport,12.328180490239172,1
ecaa1ebe-5e59-464c-8fae-42abbddcc734,Caracas,Venezuela,South_America,"Vibrant streets filled with lively music and bustling markets, surrounded by lush mountains and offering a mix of urban and natural beauty.",10.5060934,-66.9146008,20.0,Budget,80,60,80,60,60,80,40,60,40,0,0,0,1,1,1,0,1,0,23.33333333333333,22.46666666666667,1,5,Generalissimo Francisco de Miranda Air Base,8.117481770411217,0
c62183f8-3057-4af8-9d51-1cba9559f61b,Da Lat,Vietnam,Asia,"Misty mornings, lush pine forests, and vibrant markets create a serene escape with a refreshing blend of nature and local culture.",11.9373899,108.4286786,20.0,Budget,60,80,100,20,40,80,80,60,80,0,0,0,1,1,1,0,0,0,20.666666666666668,19.03333333333333,0,4,Lien Khuong Airport,21.832536219261463,1
eb3c14bc-9e8d-47f1-ba13-95e308ff7e11,New York City,United States,North_America,"Skyscrapers touch the sky as vibrant streets buzz with energy, offering a sensory overload of sights, sounds, and diverse cultures.",40.7127281,-74.0060152,20.0,Luxury,100,60,60,40,100,100,60,100,20,0,0,0,3,1,0,1,1,0,24.6,2.9,0,4,LaGuardia Airport,13.331238337159585,0
180cca4b-7d0f-41a2-99a1-27c58d512572,Sapa,Vietnam,Asia,"Rolling green terraces and misty mountain vistas create a serene escape, where vibrant local cultures and tranquil landscapes embrace visitors warmly.",22.3359246,103.8426749,20.0,Budget,80,80,100,20,40,60,60,40,80,0,0,0,1,1,1,0,1,0,20.266666666666666,10.133333333333333,0,1,Honghe Mengzi Airport / Mengzi Air Base,128.81098656267417,1
4265c1eb-e4f6-4b71-8442-56ad4483a5e4,Guadalajara,Mexico,North_America,"Colorful streets, lively mariachi music, and the rich aroma of street food create an inviting blend of tradition and modernity.",20.6720375,-103.338396,20.0,Mid-range,100,60,60,20,80,100,60,80,40,0,0,0,2,1,1,0,1,0,22.46666666666667,16.566666666666666,0,4,Guadalajara International Airport,16.794308068945664,0
6c222aca-bad0-4114-a0f8-d271510a86a0,Anchorage,United States,North_America,"Surrounded by breathtaking mountains and vast wilderness, this city offers a refreshing blend of rugged adventure and cozy urban charm.",61.2163129,-149.894852,20.0,Mid-range,60,80,100,40,40,60,60,60,80,0,0,0,2,1,0,0,1,0,14.8,-7.0,0,5,Merrill Field,2.751448802310105,1
196e96f8-6055-4123-beaa-957b027ee1f9,Bhutan,Bhutan,Asia,"Mist-shrouded mountains and vibrant monasteries offer a serene escape, where spiritual tranquility and breathtaking landscapes merge for an unforgettable experience.",27.549511,90.5119273,20.0,Luxury,100,80,100,20,20,60,80,40,100,0,0,0,3,0,0,1,1,0,15.033333333333331,3.5,0,2,Gelephu Airport,74.09014373740703,1
d4345f6e-b465-4dc0-abfe-f230b87aefb7,Samarkand,Uzbekistan,Asia,"Ancient architecture glimmers under the sun, with vibrant bazaars and fragrant spices creating an intoxicating blend of history and culture.",39.6550017,66.9756954,20.0,Budget,100,60,60,20,40,80,40,60,60,0,0,0,1,1,1,0,1,0,27.1,4.166666666666667,1,5,Samarkand Airport,5.106538875142349,0
a33298f1-58d1-403d-984e-f7744a8e1746,Wellington,New Zealand,Oceania,"Charming harborside views, vibrant arts scene, and a cozy mix of urban buzz and nature create a welcoming, eclectic atmosphere.",-41.2887953,174.7772114,20.0,Mid-range,80,60,80,60,80,80,60,80,40,0,0,1,2,1,0,0,1,0,10.966666666666669,17.633333333333333,0,5,Wellington International Airport,4.860350059125974,0
316ef402-4768-456e-98b3-87fad9b0a5c1,Lahore,Pakistan,Asia,"Bustling streets alive with vibrant colors and the aroma of spices, offering a rich tapestry of history, culture, and warm hospitality.",31.5656822,74.3141829,20.0,Budget,100,60,40,20,60,100,60,80,40,0,0,0,1,1,1,0,1,0,31.96666666666667,14.7,0,5,Allama Iqbal International Airport,9.789412976479465,0
36d2ef8d-984f-44db-8343-7b70c26e8bf1,San Pedro de Atacama,Chile,South_America,"Endless desert vistas meet surreal landscapes, where clear night skies reveal a tapestry of stars, creating an otherworldly sense of tranquility and wonder.",-22.910832,-68.2001376,20.0,Mid-range,60,100,100,20,40,60,60,40,100,0,0,0,2,1,0,0,1,0,9.933333333333332,18.0,0,2,El Loa Airport,85.51182115056312,1
12bac5cc-d5e5-4418-aec5-2805cfe04257,Madeira,Portugal,Europe,"Lush landscapes meet dramatic cliffs, where ocean breezes carry the scent of flowers and adventure awaits around every winding path.",32.751750099999995,-16.98174865726062,20.0,Mid-range,60,80,100,60,60,80,80,60,80,0,0,0,2,1,0,0,1,0,22.5,17.766666666666666,0,4,Madeira International Airport Cristiano Ronaldo,20.290881381575137,1
cb72a09a-88af-4d3b-a950-b353a445b54c,Gjirokastër,Albania,Europe,"Winding cobblestone streets and stone-roofed houses create a timeless atmosphere, with echoes of history in every corner and stunning mountain views.",40.0770871,20.1393359,20.0,Budget,100,60,80,20,40,60,40,40,80,0,0,0,1,1,1,0,0,0,25.73333333333333,7.933333333333333,1,3,Corfu Ioannis Kapodistrias International Airport,56.27657253709893,0
eb8d23c9-8122-4bb2-8325-e37036397a1c,Brisbane,Australia,Oceania,"Sun-drenched streets and lush riverside parks create a laid-back vibe, with vibrant markets and buzzing eateries adding a lively local flavor.",-27.4689682,153.0234991,20.0,Mid-range,80,80,80,60,80,80,60,80,40,0,0,1,2,1,1,0,1,0,15.733333333333333,24.73333333333333,0,4,Brisbane International Airport,13.191504437028062,0
5a296eaa-b786-420f-8a2d-08db36260144,Cesky Krumlov,Czech Republic,Europe,"Winding cobblestone streets, charming medieval architecture, and the gentle flow of the Vltava River create a fairy-tale atmosphere you'll never forget.",48.8106526,14.3150586,20.0,Mid-range,100,40,80,20,40,60,40,40,80,0,0,0,2,1,1,0,0,1,17.0,-1.366666666666667,1,2,Linz-Hörsching Airport / Vogler Air Base,64.8933772321987,0
ec2e76e8-1944-4282-962d-276573d0ceef,Basseterre,Saint Kitts and Nevis,North_America,"Lush landscapes and vibrant markets create a lively yet laid-back atmosphere, where the rhythm of island life feels both invigorating and soothing.",17.2960919,-62.722301,20.0,Mid-range,60,60,80,80,60,80,60,40,80,0,0,0,2,1,1,0,0,0,28.433333333333334,25.9,1,5,Robert L. Bradshaw International Airport,1.7227948290753594,1
a5064014-fa4f-4864-b491-a65fa2d68229,Honiara,Solomon Islands,Oceania,"Lush tropical landscapes meet vibrant local markets, offering an authentic and immersive experience in a laid-back island atmosphere.",-9.4310769,159.9552552,20.0,Mid-range,60,60,80,60,40,40,40,40,80,0,0,0,2,1,0,0,1,0,26.866666666666664,27.53333333333333,1,4,Honiara International Airport,10.945831182938518,1
7071cc05-1440-4931-88dc-3fa5a4cc15d2,Siena,Italy,Europe,"Medieval streets wind through sunlit squares, where the aroma of fresh pasta mingles with the echoes of vibrant local life.",43.16720595,11.467561040475552,20.0,Mid-range,100,40,60,20,40,80,60,60,80,0,0,0,2,1,1,0,0,0,23.23333333333333,6.833333333333333,1,4,Siena-Ampugnano Airport,19.87200791873001,0
4c88db7e-4c60-4395-9464-91ea959e2d13,La Palma,Spain,Europe,"Lush landscapes and volcanic vistas create a serene atmosphere, inviting you to explore its quiet trails and charming coastal villages.",28.6551163,-17.857268565579673,20.0,Mid-range,60,80,100,60,40,60,80,40,80,0,0,0,2,1,1,0,1,0,23.2,19.03333333333333,0,4,La Palma Airport,10.419557577574766,1
58563b14-ffba-4104-88ce-0ba065f5d6ed,Ghent,Belgium,Europe,"Charming canals and medieval architecture create a cozy atmosphere, inviting you to wander through cobblestone streets and discover hidden corners filled with history.",51.0538286,3.7250121,20.0,Mid-range,100,40,60,20,80,80,60,80,40,0,0,0,2,1,1,0,0,0,18.7,5.766666666666667,0,3,Flanders International Airport Kortrijk-Wevelgem,44.57769708192261,0
6b93d8e6-ab6a-4a5e-91f8-f42198c06d01,Sao Paulo,Brazil,South_America,"Energetic streets buzz with life, offering a tapestry of art, diverse cuisine, and vibrant nightlife that captivates every sense.",-23.5506507,-46.6333824,20.0,Mid-range,100,60,40,40,100,100,60,100,20,0,0,0,2,1,0,0,1,0,17.566666666666666,22.600000000000005,0,5,Campo de Marte Airport,4.642106038857708,0
84684cae-4fbc-4ea4-9172-5f9d802ba843,Monteverde,Costa Rica,North_America,"Misty cloud forests and vibrant wildlife create an enchanting atmosphere, where every trail offers a new sensory delight and adventure.",10.29115145,-84.81364393886889,20.0,Mid-range,60,100,100,20,40,60,60,20,80,0,0,0,2,1,1,0,1,0,20.633333333333336,20.23333333333333,0,2,Upala Airport,70.40496716264114,1
16539924-85a8-441a-8ebd-9c56d6720a35,Nukuʻalofa,Tonga,Oceania,"Warm ocean breezes and vibrant markets create a welcoming atmosphere, where the gentle rhythm of island life invites endless exploration.",-21.1343401,-175.201808,20.0,Mid-range,60,60,80,80,40,60,60,40,80,0,0,0,2,1,1,0,1,0,22.3,26.4,1,4,Fua'amotu International Airport,13.040150987130971,1
074c4c99-13f9-44ea-9ad3-bf573506a04c,Birmingham,United Kingdom,Europe,"A dynamic mix of industrial charm and modern culture, offering vibrant markets, eclectic eateries, and a rich musical heritage that captivates visitors.",52.4796992,-1.9026911,20.0,Mid-range,80,40,60,20,60,80,60,80,40,0,0,0,2,1,1,0,1,0,16.733333333333334,5.833333333333333,1,4,Birmingham Airport,10.862772074812062,0
63290557-b50c-409a-91ef-479598d31de3,Tuscany,Italy,Europe,"Rolling hills, sun-drenched vineyards, and charming medieval towns create a picturesque landscape that invites leisurely exploration and indulgent culinary experiences.",43.4586541,11.1389204,20.0,Mid-range,100,60,100,40,60,100,80,60,80,0,0,0,2,1,0,1,1,0,25.1,6.633333333333333,1,4,Siena-Ampugnano Airport,24.379255646147215,0
